[
  {
    "HospitalName": "ISWARYA FERTILITY SERVICES PVT. LTD.",
    "Address": "Iswarya Fertility Centre,  72-B, Palani (KV Hospital), Dindigul Road, Palani - 624601",
    "City": "Palani",
    "State": "Tamil Nadu",
    "Pincode": 625602,
    "Phone": 0,
    "no": 6930,
    "TPAs": [
      "1",
      "2",
      "3",
      "5",
      "14",
      "10",
      "8",
      "6",
      "9",
      "4",
      "11",
      "13",
      "12",
      "10"
    ],
    "Latitude": 10.4487073,
    "Longitude": 77.5246623
  },
  {
    "HospitalName": "MN EYE HOSPITAL PVT LTD",
    "Address": "33,M.G ROADSHASTRI NAGER,ADYAR,CHENNAI600020",
    "City": "Chennai",
    "State": "Tamil Nadu",
    "Pincode": 600020,
    "Phone": 25953594,
    "no": 6931,
    "TPAs": [
      "1",
      "2",
      "3",
      "5",
      "14",
      "10",
      "8",
      "6",
      "9",
      "4",
      "11",
      "13",
      "12",
      "10"
    ],
    "Latitude": 12.9965921,
    "Longitude": 80.2679426
  },
  {
    "HospitalName": "SANJAY SURGICAL HOSPITAL\u00a0",
    "Address": "NO:8,VIJAYARANGAMUDALI STREET,",
    "City": "Palani",
    "State": "Tamil Nadu",
    "Pincode": 624601,
    "Phone": 241717,
    "no": 6933,
    "TPAs": [
      "1",
      "2",
      "3",
      "5",
      "14",
      "10",
      "8",
      "6",
      "9",
      "4",
      "11",
      "13",
      "12",
      "10"
    ],
    "Latitude": 10.4500374,
    "Longitude": 77.5161356
  },
  {
    "HospitalName": "HCG MANAVATA CANCER CENTRE - UNIT 2",
    "Address": "NEAR MYLAN CIRCLE, MUMBAI NAKA NASHIK ",
    "City": "Nashik",
    "State": "Maharashtra",
    "Pincode": 422002,
    "Phone": 6661111,
    "no": 6934,
    "TPAs": [
      "1",
      "2",
      "3",
      "5",
      "14",
      "10",
      "8",
      "6",
      "9",
      "4",
      "11",
      "13",
      "12",
      "10"
    ],
    "Latitude": 19.9898454,
    "Longitude": 73.7872941
  },
  {
    "HospitalName": "Solapur Pediatric & Neonatal Critical Care Center (SPAN Hospital)",
    "Address": "162, 165 Near Suyash Classes, Behind Balaji Bhavan, ",
    "City": "Solapur",
    "State": "Maharashtra",
    "Pincode": 413003,
    "Phone": 0,
    "no": 6937,
    "TPAs": [
      "1",
      "2",
      "3",
      "5",
      "14",
      "10",
      "8",
      "6",
      "9",
      "4",
      "11",
      "13",
      "12",
      "10"
    ],
    "Latitude": 17.6626172,
    "Longitude": 75.9061031
  },
  {
    "HospitalName": "Dhanvantari Nursing Home, Neral",
    "Address": "Near Maruti Temple, Main Road, Neral, Karjat",
    "City": "Raigad",
    "State": "Maharashtra",
    "Pincode": 410101,
    "Phone": 9373304542,
    "no": 6939,
    "TPAs": [
      "1",
      "2",
      "3",
      "5",
      "14",
      "10",
      "8",
      "6",
      "9",
      "4",
      "11",
      "13",
      "12",
      "10"
    ],
    "Latitude": 19.0229829,
    "Longitude": 73.31745459999999
  },
  {
    "HospitalName": "ISWARYA FERTILITY SERVICES PVT. LTD.",
    "Address": "Iswarya Fertility Center , No. 238 Avaram Palayam Road, New Siddhapudur, Coimbatore, Tamilnadu - 641044",
    "City": "Coimbatore",
    "State": "Tamil Nadu",
    "Pincode": 641044,
    "Phone": "2241777/9842228244",
    "no": 6940,
    "TPAs": [
      "1",
      "2",
      "3",
      "5",
      "14",
      "10",
      "8",
      "6",
      "9",
      "4",
      "11",
      "13",
      "12",
      "10"
    ],
    "Latitude": 11.0173943,
    "Longitude": 76.9772821
  },
  {
    "HospitalName": "INDIGO WOMENS CENTER",
    "Address": "NO 995B ,H BLOCK, 2ND AVENUE",
    "City": "Chennai",
    "State": "Tamil Nadu",
    "Pincode": 600040,
    "Phone": 49465555,
    "no": 6941,
    "TPAs": [
      "1",
      "2",
      "3",
      "5",
      "14",
      "10",
      "8",
      "6",
      "9",
      "4",
      "11",
      "13",
      "12",
      "10"
    ],
    "Latitude": 13.0854239,
    "Longitude": 80.2054789
  },
  {
    "HospitalName": "Nabanir Hospital & Diagnostics Pvt .Ltd.",
    "Address": "37/2, Kalabagan Lane, Opp: Dumurjala Stadium, Santragachi",
    "City": "Howrah",
    "State": "West Bengal",
    "Pincode": 711104,
    "Phone": 9681511123,
    "no": 6944,
    "TPAs": [
      "1",
      "2",
      "3",
      "5",
      "14",
      "10",
      "8",
      "6",
      "9",
      "4",
      "11",
      "13",
      "12",
      "10"
    ],
    "Latitude": 22.5822071,
    "Longitude": 88.3060613
  },
  {
    "HospitalName": "ISWARYA FERTILITY SERVICES PVT. LTD.",
    "Address": "NO : 70, KENNET HOSPITAL ROAD, RAILWAY COLONY ZONE 1, VAITHIYANADHAPURAM, MADURAI - 625016",
    "City": "Madurai",
    "State": "Tamil Nadu",
    "Pincode": 625016,
    "Phone": "9976633022/8883302333",
    "no": 6946,
    "TPAs": [
      "1",
      "2",
      "3",
      "5",
      "14",
      "10",
      "8",
      "6",
      "9",
      "4",
      "11",
      "13",
      "12",
      "10"
    ],
    "Latitude": 9.928507200000002,
    "Longitude": 78.09371709999999
  },
  {
    "HospitalName": "IYYAPPA HOSPITALS AND\n DIABETES RESEARCH CENTRE PVT LTD",
    "Address": "308,310. MPM ROAD, \nPERAMBUR, CHENNAI - 600039",
    "City": "Chennai",
    "State": "Tamil Nadu",
    "Pincode": 600039,
    "Phone": 43517526,
    "no": 6948,
    "TPAs": [
      "1",
      "2",
      "3",
      "5",
      "14",
      "10",
      "8",
      "6",
      "9",
      "4",
      "11",
      "13",
      "12",
      "10"
    ],
    "Latitude": 13.1083121,
    "Longitude": 80.2449184
  },
  {
    "HospitalName": "Sarraf Ortho Spine & Maternity Centre",
    "Address": "Infron Of DMC Prinicple Office, Laheria Sarai",
    "City": "Darbhanga",
    "State": "Bihar",
    "Pincode": 846003,
    "Phone": 256481,
    "no": 6950,
    "TPAs": [
      "1",
      "2",
      "3",
      "5",
      "14",
      "10",
      "8",
      "6",
      "9",
      "4",
      "11",
      "13",
      "12",
      "10"
    ],
    "Latitude": 26.1321917,
    "Longitude": 85.90187759999999
  },
  {
    "HospitalName": "PANIMALAR MEDICAL COLLEGE HOSPITAL & RESEARCH INSTITUTE",
    "Address": "VARADHARAJAPURAM",
    "City": "Chennai",
    "State": "Tamil Nadu",
    "Pincode": 600123,
    "Phone": 67144130,
    "no": 6955,
    "TPAs": [
      "1",
      "2",
      "3",
      "5",
      "14",
      "10",
      "8",
      "6",
      "9",
      "4",
      "11",
      "13",
      "12",
      "10"
    ],
    "Latitude": 13.0565162,
    "Longitude": 80.0752845
  },
  {
    "HospitalName": " Yogmaya Devi Eye Hospital",
    "Address": "Near Alpana Market,Petrol Pump,Beside Raj Chikitsa,Boring Patliputra Road",
    "City": "Patna",
    "State": "Bihar",
    "Pincode": 800013,
    "Phone": 7070187777,
    "no": 6958,
    "TPAs": [
      "1",
      "2",
      "3",
      "5",
      "14",
      "10",
      "8",
      "6",
      "9",
      "4",
      "11",
      "13",
      "12",
      "10"
    ],
    "Latitude": 25.6233679,
    "Longitude": 85.1093087
  },
  {
    "HospitalName": "Amrish Oncology Services Pvt. Ltd ",
    "Address": "Dr. G. Viswanathan CBCC Cancer Center",
    "City": "Trichy",
    "State": "Tamil Nadu",
    "Pincode": 620005,
    "Phone": 6600400,
    "no": 6959,
    "TPAs": [
      "1",
      "2",
      "3",
      "5",
      "14",
      "10",
      "8",
      "6",
      "9",
      "4",
      "11",
      "13",
      "12",
      "10"
    ],
    "Latitude": 10.8463493,
    "Longitude": 78.6986273
  },
  {
    "HospitalName": "NILKANTH  ORTHOPEADIC HOPSITAL",
    "Address": "A -201 ADITYA COMPLEX VIP CIRCLE UTRAN SURAT",
    "City": "Surat",
    "State": "Gujarat",
    "Pincode": 394105,
    "Phone": 9601919994,
    "no": 6960,
    "TPAs": [
      "1",
      "2",
      "3",
      "5",
      "14",
      "10",
      "8",
      "6",
      "9",
      "4",
      "11",
      "13",
      "12",
      "10"
    ],
    "Latitude": 21.230214,
    "Longitude": 72.86650809999999
  },
  {
    "HospitalName": "KLARIT EYE CARE",
    "Address": "115, LAKSHMANASAMY SALAI",
    "City": "Chennai",
    "State": "Tamil Nadu",
    "Pincode": 600078,
    "Phone": 42035999,
    "no": 6962,
    "TPAs": [
      "1",
      "2",
      "3",
      "5",
      "14",
      "10",
      "8",
      "6",
      "9",
      "4",
      "11",
      "13",
      "12",
      "10"
    ],
    "Latitude": 13.0381409,
    "Longitude": 80.2037671
  },
  {
    "HospitalName": "Sewa Shree Hospital",
    "Address": "1st Floor, Sp Complex, Mahaveer Colony",
    "City": "Raisen",
    "State": "Madhya Pradesh",
    "Pincode": 464993,
    "Phone": 6262224626,
    "no": 6963,
    "TPAs": [
      "1",
      "2",
      "3",
      "5",
      "14",
      "10",
      "8",
      "6",
      "9",
      "4",
      "11",
      "13",
      "12",
      "10"
    ],
    "Latitude": 23.0015199,
    "Longitude": 77.58808049999999
  },
  {
    "HospitalName": "PRABHAVATI ACCEDENT & CRITICAL CARE HOSPITAL",
    "Address": "PLOT NO. 7, OPP MAHINDRA GARE, SHRAMIK NAGAR BUS STOP, SATPUR NASHIK",
    "City": "NASHIK",
    "State": "Maharashtra",
    "Pincode": 422012,
    "Phone": 2282222,
    "no": 6965,
    "TPAs": [
      "1",
      "2",
      "3",
      "5",
      "14",
      "10",
      "8",
      "6",
      "9",
      "4",
      "11",
      "13",
      "12",
      "10"
    ],
    "Latitude": 19.9964272,
    "Longitude": 73.7115821
  },
  {
    "HospitalName": "Sri Ragavendra Healthcare ",
    "Address": "No-218,South Service Road,Sathuvachari ",
    "City": "Vellore ",
    "State": "Tamil Nadu",
    "Pincode": 632009,
    "Phone": 2255822,
    "no": 6967,
    "TPAs": [
      "1",
      "2",
      "3",
      "5",
      "14",
      "10",
      "8",
      "6",
      "9",
      "4",
      "11",
      "13",
      "12",
      "10"
    ],
    "Latitude": 12.9532213,
    "Longitude": 79.1366977
  },
  {
    "HospitalName": "Siddhivinayak Multispeciality Hospital",
    "Address": "1st Floor, Vastu Arcade building , Swami Samarth Chowk , Barrage Road",
    "City": "Thane",
    "State": "Maharashtra",
    "Pincode": 421503,
    "Phone": 9172222199,
    "no": 6968,
    "TPAs": [
      "1",
      "2",
      "3",
      "5",
      "14",
      "10",
      "8",
      "6",
      "9",
      "4",
      "11",
      "13",
      "12",
      "10"
    ],
    "Latitude": 19.1649246,
    "Longitude": 73.24554189999999
  },
  {
    "HospitalName": "ISWARYA FERTILITY SERVICES PVT. LTD.",
    "Address": "NO : 24, MANNAR SERFOJI NAGAR, NEAR NEW BUSTAND, TANJAVUR - 613005",
    "City": "Thanjavur",
    "State": "Tamil Nadu",
    "Pincode": 613005,
    "Phone": 0,
    "no": 6969,
    "TPAs": [
      "1",
      "2",
      "3",
      "5",
      "14",
      "10",
      "8",
      "6",
      "9",
      "4",
      "11",
      "13",
      "12",
      "10"
    ],
    "Latitude": 10.7507098,
    "Longitude": 79.1124065
  },
  {
    "HospitalName": "ISWARYA FERTILITY SERVICES PVT. LTD.",
    "Address": "NO : 9/1, KARUR BYEPASS ROAD, ANNAMALAI NAGAR,TRICHY - 620003",
    "City": "Trichy",
    "State": "Tamil Nadu",
    "Pincode": 620003,
    "Phone": 0,
    "no": 6970,
    "TPAs": [
      "1",
      "2",
      "3",
      "5",
      "14",
      "10",
      "8",
      "6",
      "9",
      "4",
      "11",
      "13",
      "12",
      "10"
    ],
    "Latitude": 10.831097,
    "Longitude": 78.68552369999999
  },
  {
    "HospitalName": "ISWARYA FERTILITY SERVICES PVT. LTD.",
    "Address": "NO : 49/1, MOOLAKOTHALAM STREET, MADURAI MAIN ROAD,RAMANATHAPURAM - 623501",
    "City": "Ramanathapuram",
    "State": "Tamil Nadu",
    "Pincode": 623501,
    "Phone": 0,
    "no": 6971,
    "TPAs": [
      "1",
      "2",
      "3",
      "5",
      "14",
      "10",
      "8",
      "6",
      "9",
      "4",
      "11",
      "13",
      "12",
      "10"
    ],
    "Latitude": 9.3670861,
    "Longitude": 78.8363104
  },
  {
    "HospitalName": "ISWARYA FERTILITY SERVICES PVT. LTD.",
    "Address": "NO : 489, LION GRANDEUR, TRIVANDRUM ROAD, OPPOSITE TO NEW BUSTAND, TIRUNELVELI - 627007",
    "City": "Tirunelveli",
    "State": "Tamil Nadu",
    "Pincode": 627007,
    "Phone": 0,
    "no": 6972,
    "TPAs": [
      "1",
      "2",
      "3",
      "5",
      "14",
      "10",
      "8",
      "6",
      "9",
      "4",
      "11",
      "13",
      "12",
      "10"
    ],
    "Latitude": 8.7039183,
    "Longitude": 77.729971
  },
  {
    "HospitalName": "SARA MULTISPECIALITY HOSPITAL PVT LTD",
    "Address": "01, SADASHIV NAGAR, BEHIND KASTURI HOTEL",
    "City": "JALGAON",
    "State": "Maharashtra",
    "Pincode": 425001,
    "Phone": 2270623,
    "no": 6973,
    "TPAs": [
      "1",
      "2",
      "3",
      "5",
      "14",
      "10",
      "8",
      "6",
      "9",
      "4",
      "11",
      "13",
      "12",
      "10"
    ],
    "Latitude": 20.9926218,
    "Longitude": 75.5790332
  },
  {
    "HospitalName": "SHAARAVE MULTISPECILAITY HOSPITAL ",
    "Address": "NO.134,MINT STREET, SOWCARPET, CHENNAI 79",
    "City": "Chennai",
    "State": "Tamil Nadu",
    "Pincode": 600079,
    "Phone": 43229641,
    "no": 6975,
    "TPAs": [
      "1",
      "2",
      "3",
      "5",
      "14",
      "10",
      "8",
      "6",
      "9",
      "4",
      "11",
      "13",
      "12",
      "10"
    ],
    "Latitude": 13.0983924,
    "Longitude": 80.2799297
  },
  {
    "HospitalName": "A4HOSPITAL&A4 FERTILITY",
    "Address": "NO-87.ARCOT ROAD,VIRUGAMBAKKAM",
    "City": "Chennai",
    "State": "Tamil Nadu",
    "Pincode": 600092,
    "Phone": 42952244,
    "no": 6976,
    "TPAs": [
      "1",
      "2",
      "3",
      "5",
      "14",
      "10",
      "8",
      "6",
      "9",
      "4",
      "11",
      "13",
      "12",
      "10"
    ],
    "Latitude": 13.0476913,
    "Longitude": 80.1963549
  },
  {
    "HospitalName": "lakshminarayan superspeciality hospital",
    "Address": "peth sangli road ",
    "City": "islampur",
    "State": "Maharashtra",
    "Pincode": 415409,
    "Phone": 225775,
    "no": 6978,
    "TPAs": [
      "1",
      "2",
      "3",
      "5",
      "14",
      "10",
      "8",
      "6",
      "9",
      "4",
      "11",
      "13",
      "12",
      "10"
    ],
    "Latitude": 17.04533,
    "Longitude": 74.2609871
  },
  {
    "HospitalName": "DHANLAXMI APRT,, Mumbai, Maharashtra-",
    "Address": "DHANLAXMI APRT,",
    "City": "Mumbai",
    "State": "Maharashtra",
    "Pincode": 400072,
    "Phone": 25157570,
    "no": 6979,
    "TPAs": [
      "1",
      "2",
      "3",
      "5",
      "14",
      "10",
      "8",
      "6",
      "9",
      "4",
      "11",
      "13",
      "12",
      "10"
    ],
    "Latitude": 19.1235797,
    "Longitude": 72.864402
  },
  {
    "HospitalName": "Pavana Hospital",
    "Address": "6TH CROSS, SHANKARAPURAM, BH ROAD",
    "City": "Tumkur",
    "State": "Karnataka",
    "Pincode": 572102,
    "Phone": 2270100,
    "no": 6980,
    "TPAs": [
      "1",
      "2",
      "3",
      "5",
      "14",
      "10",
      "8",
      "6",
      "9",
      "4",
      "11",
      "13",
      "12",
      "10"
    ],
    "Latitude": 13.3410415,
    "Longitude": 77.1118652
  },
  {
    "HospitalName": "Parivar Super Speciality Hospital & Research Centre",
    "Address": "Dushera Garden, Gwalior, Madhya Pradesh-",
    "City": "Gwalior",
    "State": "Madhya Pradesh",
    "Pincode": 474002,
    "Phone": 4032700,
    "no": 6981,
    "TPAs": [
      "1",
      "2",
      "3",
      "5",
      "14",
      "10",
      "8",
      "6",
      "9",
      "4",
      "11",
      "13",
      "12",
      "10"
    ],
    "Latitude": 26.1910926,
    "Longitude": 78.16461230000002
  },
  {
    "HospitalName": "Blossoms Mother And Child Hospital",
    "Address": "D no 36-8-45water Tank Road Sikhamani Centre",
    "City": "Vijayawada",
    "State": "Andhra Pradesh",
    "Pincode": 520008,
    "Phone": 6690999,
    "no": 6982,
    "TPAs": [
      "1",
      "2",
      "3",
      "5",
      "14",
      "10",
      "8",
      "6",
      "9",
      "4",
      "11",
      "13",
      "12",
      "10"
    ],
    "Latitude": 16.5070262,
    "Longitude": 80.64033739999999
  },
  {
    "HospitalName": "Vin R Eye Care Centre",
    "Address": "B-001 SAI SHRADDHA,RELIANCE FRESH ",
    "City": "Mumbai",
    "State": "Maharashtra",
    "Pincode": 400083,
    "Phone": 9820357549,
    "no": 6984,
    "TPAs": [
      "1",
      "2",
      "3",
      "5",
      "14",
      "10",
      "8",
      "6",
      "9",
      "4",
      "11",
      "13",
      "12",
      "10"
    ],
    "Latitude": 19.1113495,
    "Longitude": 72.9296913
  },
  {
    "HospitalName": "AHALIA FOUNDATION EYE HOSPIATL",
    "Address": "THEKKUMURIYIL ARCADE,COLLEGE ROAD,PATHANAMTHITTA-689645",
    "City": "PATHANAMTHITTA",
    "State": "Kerala",
    "Pincode": 689645,
    "Phone": 9400247623,
    "no": 6985,
    "TPAs": [
      "1",
      "2",
      "3",
      "5",
      "14",
      "10",
      "8",
      "6",
      "9",
      "4",
      "11",
      "13",
      "12",
      "10"
    ],
    "Latitude": 9.2631468,
    "Longitude": 76.783678
  },
  {
    "HospitalName": "AHALIA FOUNDATION EYE HIOSPITAL",
    "Address": "SAAROZS ARCADE , NATIONAL HIGHWAY, ATTINGAL, THIRUVANANTHAPURAM, KERALA-695101",
    "City": "Attingal",
    "State": "Kerala",
    "Pincode": 695101,
    "Phone": 9400247623,
    "no": 6994,
    "TPAs": [
      "1",
      "2",
      "3",
      "5",
      "14",
      "10",
      "8",
      "6",
      "9",
      "4",
      "11",
      "13",
      "12",
      "10"
    ],
    "Latitude": 8.6921875,
    "Longitude": 76.8214375
  },
  {
    "HospitalName": "JSK Superspeciality Eye Hospital",
    "Address": "Plot No. 35",
    "City": "SAONER",
    "State": "Maharashtra",
    "Pincode": 441107,
    "Phone": 9156177250,
    "no": 7002,
    "TPAs": [
      "1",
      "2",
      "3",
      "5",
      "14",
      "10",
      "8",
      "6",
      "9",
      "4",
      "11",
      "13",
      "12",
      "10"
    ],
    "Latitude": 21.3865098,
    "Longitude": 78.9191244
  },
  {
    "HospitalName": "SRIKARII HOSPITAL",
    "Address": "4TH WARD PATEL NAGAR HOSPET",
    "City": "HOSPET",
    "State": "Karnataka",
    "Pincode": 583201,
    "Phone": 7619476999,
    "no": 7003,
    "TPAs": [
      "1",
      "2",
      "3",
      "5",
      "14",
      "10",
      "8",
      "6",
      "9",
      "4",
      "11",
      "13",
      "12",
      "10"
    ],
    "Latitude": 15.2785274,
    "Longitude": 76.3875159
  },
  {
    "HospitalName": "Life Era Multispeciality Hospital",
    "Address": "Plot No - 33&34 , Granduar CHS, Shop No: F101, First Floor, Sector - 20, Kamothe",
    "City": "Navi Mumbai",
    "State": "Maharashtra",
    "Pincode": 410209,
    "Phone": 27432626,
    "no": 7004,
    "TPAs": [
      "1",
      "2",
      "3",
      "5",
      "14",
      "10",
      "8",
      "6",
      "9",
      "4",
      "11",
      "13",
      "12",
      "10"
    ],
    "Latitude": 18.9784714,
    "Longitude": 73.0296664
  },
  {
    "HospitalName": "Varad Hospital & Critical care",
    "Address": "Maalwale nagar no:-2,Adarshnagar Road kiwale PCMC Pune-412101.",
    "City": "Pune",
    "State": "Maharashtra",
    "Pincode": 412101,
    "Phone": 9960813927,
    "no": 7005,
    "TPAs": [
      "1",
      "2",
      "3",
      "5",
      "14",
      "10",
      "8",
      "6",
      "9",
      "4",
      "11",
      "13",
      "12",
      "10"
    ],
    "Latitude": 18.6635573,
    "Longitude": 73.7353952
  },
  {
    "HospitalName": "Vinayaka Mission's Kirupananda Variyar Medical College and Hospital",
    "Address": "NH 47 Sankari Main Road,",
    "City": "Salem",
    "State": "Tamil Nadu",
    "Pincode": 636308,
    "Phone": 2477883,
    "no": 7006,
    "TPAs": [
      "1",
      "2",
      "3",
      "5",
      "14",
      "10",
      "8",
      "6",
      "9",
      "4",
      "11",
      "13",
      "12",
      "10"
    ],
    "Latitude": 11.5855951,
    "Longitude": 78.0638786
  },
  {
    "HospitalName": "IRIS EYE CARE",
    "Address": "SANT RAGHUVIR NAGAR COLONY, SIGRA, VARANASI, UTTAR PRADESH",
    "City": "VARANASI",
    "State": "Uttar Pradesh",
    "Pincode": 221010,
    "Phone": 8299611744,
    "no": 7007,
    "TPAs": [
      "1",
      "2",
      "3",
      "5",
      "14",
      "10",
      "8",
      "6",
      "9",
      "4",
      "11",
      "13",
      "12",
      "10"
    ],
    "Latitude": 25.3079727,
    "Longitude": 82.98451999999999
  },
  {
    "HospitalName": "CARE ASIA HOSPITAL",
    "Address": "NO. 1494",
    "City": "BENGALURU",
    "State": "Karnataka",
    "Pincode": 562123,
    "Phone": 8884971111,
    "no": 7009,
    "TPAs": [
      "1",
      "2",
      "3",
      "5",
      "14",
      "10",
      "8",
      "6",
      "9",
      "4",
      "11",
      "13",
      "12",
      "10"
    ],
    "Latitude": 13.0990435,
    "Longitude": 77.3919842
  },
  {
    "HospitalName": "SHOBHA MATERNITY AND SURGICAL HEALTHCARE CENTRE",
    "Address": "NO 171/2 16TH MAIN BTM LAYOUT 1ST STAGE NEAR TAVAREKERE BUS STOP ",
    "City": "Bengaluru",
    "State": "Karnataka",
    "Pincode": 560029,
    "Phone": 8123453635,
    "no": 7012,
    "TPAs": [
      "1",
      "2",
      "3",
      "5",
      "14",
      "10",
      "8",
      "6",
      "9",
      "4",
      "11",
      "13",
      "12",
      "10"
    ],
    "Latitude": 12.9221426,
    "Longitude": 77.6110123
  },
  {
    "HospitalName": "AV Daddenavar Hospital",
    "Address": "Sector no-22 near taluk office Navanagar",
    "City": "Bagalkot",
    "State": "Karnataka",
    "Pincode": 587103,
    "Phone": 297188,
    "no": 7013,
    "TPAs": [
      "1",
      "2",
      "3",
      "5",
      "14",
      "10",
      "8",
      "6",
      "9",
      "4",
      "11",
      "13",
      "12",
      "10"
    ],
    "Latitude": 16.1592559,
    "Longitude": 75.6677083
  },
  {
    "HospitalName": "Nirvana Adishubhra  Hospital Pvt Ltd ",
    "Address": "Plot No- 435/6056 Aiginia, Khandagiri",
    "City": "Bhubaneswar",
    "State": "Odisha",
    "Pincode": 751019,
    "Phone": 7077775014,
    "no": 7014,
    "TPAs": [
      "1",
      "2",
      "3",
      "5",
      "14",
      "10",
      "8",
      "6",
      "9",
      "4",
      "11",
      "13",
      "12",
      "10"
    ],
    "Latitude": 20.2602933,
    "Longitude": 85.7861831
  },
  {
    "HospitalName": "MANUR MULTISPECIAITY HOSPITAL",
    "Address": "PLOT NO. 72",
    "City": "Gulbarga",
    "State": "Karnataka",
    "Pincode": 585105,
    "Phone": 356744,
    "no": 7015,
    "TPAs": [
      "1",
      "2",
      "3",
      "5",
      "14",
      "10",
      "8",
      "6",
      "9",
      "4",
      "11",
      "13",
      "12",
      "10"
    ],
    "Latitude": 17.3337446,
    "Longitude": 76.8584219
  },
  {
    "HospitalName": "Karnataka Cancer Therapy And Research Institute",
    "Address": "GAMANAGATTI ROAD",
    "City": "Hubli",
    "State": "Karnataka",
    "Pincode": 580025,
    "Phone": 2228217,
    "no": 7016,
    "TPAs": [
      "1",
      "2",
      "3",
      "5",
      "14",
      "10",
      "8",
      "6",
      "9",
      "4",
      "11",
      "13",
      "12",
      "10"
    ],
    "Latitude": 15.3507368,
    "Longitude": 75.1087682
  },
  {
    "HospitalName": "CHIRAYU MULTISPECIALITY HOSPITAL",
    "Address": "NEAR RAM MANDIR",
    "City": "Dharwad",
    "State": "Karnataka",
    "Pincode": 580007,
    "Phone": 9999999999,
    "no": 7018,
    "TPAs": [
      "1",
      "2",
      "3",
      "5",
      "14",
      "10",
      "8",
      "6",
      "9",
      "4",
      "11",
      "13",
      "12",
      "10"
    ],
    "Latitude": 15.4456807,
    "Longitude": 75.0035803
  },
  {
    "HospitalName": "SRI SAIVIHARIKA HOSPITAL",
    "Address": "Sai nilaya KBP road Muthyalpet Mulbagal",
    "City": "Kolar",
    "State": "Karnataka",
    "Pincode": 563131,
    "Phone": 7022005520,
    "no": 7019,
    "TPAs": [
      "1",
      "2",
      "3",
      "5",
      "14",
      "10",
      "8",
      "6",
      "9",
      "4",
      "11",
      "13",
      "12",
      "10"
    ],
    "Latitude": 13.1625308,
    "Longitude": 78.3996018
  },
  {
    "HospitalName": "CRYSTAL LIFE MULTISPECIALITY HOSPITAL",
    "Address": "Survey No 78/09, New By pass road,Dehugaon",
    "City": "Pune",
    "State": "Maharashtra",
    "Pincode": 412109,
    "Phone": 9822414147,
    "no": 7020,
    "TPAs": [
      "1",
      "2",
      "3",
      "5",
      "14",
      "10",
      "8",
      "6",
      "9",
      "4",
      "11",
      "13",
      "12",
      "10"
    ],
    "Latitude": 18.7116788,
    "Longitude": 73.768509
  },
  {
    "HospitalName": "Rainbow hospitals, visakhaptnm",
    "Address": "Plot No.15A, Survey No.21 & 27 Health City, Chinnagadili, Chinna Gadhili, Hanumanthavaka, Visakhapatnam",
    "City": "Visakhapatnam",
    "State": "Andhra Pradesh",
    "Pincode": 530040,
    "Phone": "891 350 1601",
    "no": 7021,
    "TPAs": [
      "1",
      "2",
      "3",
      "5",
      "14",
      "10",
      "8",
      "6",
      "9",
      "4",
      "11",
      "13",
      "12",
      "10"
    ],
    "Latitude": 17.7635223,
    "Longitude": 83.3081172
  },
  {
    "HospitalName": "OJAS MULTISPECIALITY HOSPITAL LLP",
    "Address": "SR. NO.203, BHONDWE CHOWK, D. Y. PATIL COLLEGE ROAD, RAVET, PUNE",
    "City": "PUNE",
    "State": "Maharashtra",
    "Pincode": 412101,
    "Phone": 27405500,
    "no": 7026,
    "TPAs": [
      "1",
      "2",
      "3",
      "5",
      "14",
      "10",
      "8",
      "6",
      "9",
      "4",
      "11",
      "13",
      "12",
      "10"
    ],
    "Latitude": 18.6433695,
    "Longitude": 73.7545639
  },
  {
    "HospitalName": "Parul Sevashram Hospital ",
    "Address": "Limda Taluka Waghodia",
    "City": "Vadodara",
    "State": "Gujarat",
    "Pincode": 391760,
    "Phone": "02668-290900",
    "no": 7027,
    "TPAs": [
      "1",
      "2",
      "3",
      "5",
      "14",
      "10",
      "8",
      "6",
      "9",
      "4",
      "11",
      "13",
      "12",
      "10"
    ],
    "Latitude": 22.288363,
    "Longitude": 73.3654738
  },
  {
    "HospitalName": "THAKRAL NURSING HOME AND MATERNITY CENTRE",
    "Address": "316/16, SHIVAJI NAGAR, OPP POLICE COMMISONER OFFICE , GURUGRAM, 122001",
    "City": "Gurgaon",
    "State": "Haryana",
    "Pincode": 122001,
    "Phone": 4281301,
    "no": 7030,
    "TPAs": [
      "1",
      "2",
      "3",
      "5",
      "14",
      "10",
      "8",
      "6",
      "9",
      "4",
      "11",
      "13",
      "12",
      "10"
    ],
    "Latitude": 28.455345,
    "Longitude": 77.0296702
  },
  {
    "HospitalName": "KUTCH ORTHOPAEDIC HOSPITAL",
    "Address": "PLOT NO: 5,6,35&36, SHIVAM NAGAR",
    "City": "BHUJ",
    "State": "Gujarat",
    "Pincode": 370001,
    "Phone": 230023,
    "no": 7038,
    "TPAs": [
      "1",
      "2",
      "3",
      "5",
      "14",
      "10",
      "8",
      "6",
      "9",
      "4",
      "11",
      "13",
      "12",
      "10"
    ],
    "Latitude": 23.2333327,
    "Longitude": 69.6387603
  },
  {
    "HospitalName": "Kalda Burn & Plastic Surgery Centre",
    "Address": "\u00a0Pachpedi Naka,Color Mall,New Dhamtari Road",
    "City": "Raipur",
    "State": "Chattisgarh",
    "Pincode": 492006,
    "Phone": 9285001313,
    "no": 7040,
    "TPAs": [
      "1",
      "2",
      "3",
      "5",
      "14",
      "10",
      "8",
      "6",
      "9",
      "4",
      "11",
      "13",
      "12",
      "10"
    ],
    "Latitude": 21.2161732,
    "Longitude": 81.65703909999999
  },
  {
    "HospitalName": "NAVJIVAN CARE HOME GUJARAT PVT. LTD",
    "Address": "NEAR SAPNA THEATRE SARKHEJ",
    "City": "AHMEDABAD",
    "State": "Gujarat",
    "Pincode": 382210,
    "Phone": 9825603794,
    "no": 7043,
    "TPAs": [
      "1",
      "2",
      "3",
      "5",
      "14",
      "10",
      "8",
      "6",
      "9",
      "4",
      "11",
      "13",
      "12",
      "10"
    ],
    "Latitude": 23.0451147,
    "Longitude": 72.5641074
  },
  {
    "HospitalName": "Siddhi Multispeciality Hospital",
    "Address": "A/P Manchar In Front Of Market Yard, Tal-Ambegaon Dist Pune",
    "City": "Pune",
    "State": "Maharashtra",
    "Pincode": 410503,
    "Phone": 9922332299,
    "no": 7045,
    "TPAs": [
      "1",
      "2",
      "3",
      "5",
      "14",
      "10",
      "8",
      "6",
      "9",
      "4",
      "11",
      "13",
      "12",
      "10"
    ],
    "Latitude": 19.003862,
    "Longitude": 73.94593499999999
  },
  {
    "HospitalName": "KONDAVEEDU ENT HOSPITALS",
    "Address": "D.NO.16-2-134,GUNTUR ROAD,NARASARAOPET ",
    "City": "Guntur",
    "State": "Andhra Pradesh",
    "Pincode": 522601,
    "Phone": 227356,
    "no": 7049,
    "TPAs": [
      "1",
      "2",
      "3",
      "5",
      "14",
      "10",
      "8",
      "6",
      "9",
      "4",
      "11",
      "13",
      "12",
      "10"
    ],
    "Latitude": 16.2359019,
    "Longitude": 80.05570469999999
  },
  {
    "HospitalName": "AIRMID HOSPITAL ( UNIT OF RAO HEALTHCARE PVT LTD )",
    "Address": "PROPERTY NO 3 , NARAIN MARKET , SAMAYPUR, NEAR SAMAYPUR BADLI, METRO STATION , NEW DELHI",
    "City": "NEW DELHI",
    "State": "Delhi",
    "Pincode": 110042,
    "Phone": 27837011,
    "no": 7052,
    "TPAs": [
      "1",
      "2",
      "3",
      "5",
      "14",
      "10",
      "8",
      "6",
      "9",
      "4",
      "11",
      "13",
      "12",
      "10"
    ],
    "Latitude": 28.657589,
    "Longitude": 77.21619729999999
  },
  {
    "HospitalName": "BABYCARE CHILDREN HOSPITAL",
    "Address": "D/303,304,306,309 TO 312 GALAXY ARCADE ",
    "City": "AHMEDABAD",
    "State": "Gujarat",
    "Pincode": 382330,
    "Phone": 22816065,
    "no": 7053,
    "TPAs": [
      "1",
      "2",
      "3",
      "5",
      "14",
      "10",
      "8",
      "6",
      "9",
      "4",
      "11",
      "13",
      "12",
      "10"
    ],
    "Latitude": 23.0779739,
    "Longitude": 72.6547327
  },
  {
    "HospitalName": "DHIRAJ HOSPITAL",
    "Address": "AT. & POST-PIPARIA",
    "City": "Vadodara",
    "State": "Gujarat",
    "Pincode": 391760,
    "Phone": 245264,
    "no": 7055,
    "TPAs": [
      "1",
      "2",
      "3",
      "5",
      "14",
      "10",
      "8",
      "6",
      "9",
      "4",
      "11",
      "13",
      "12",
      "10"
    ],
    "Latitude": 22.2921098,
    "Longitude": 73.3209906
  },
  {
    "HospitalName": "Sri Lakshmi Maternity& Surgical Nursing Home",
    "Address": "Beside Sivalayam,Kotha Pet,Guntur",
    "City": "Guntur",
    "State": "Andhra Pradesh",
    "Pincode": 522001,
    "Phone": 2222740,
    "no": 7058,
    "TPAs": [
      "1",
      "2",
      "3",
      "5",
      "14",
      "10",
      "8",
      "6",
      "9",
      "4",
      "11",
      "13",
      "12",
      "10"
    ],
    "Latitude": 16.3002581,
    "Longitude": 80.4498255
  },
  {
    "HospitalName": "Eye7 Hospital Pvt.Ltd",
    "Address": "A-1/173, G Floor, Metro Pillar No.614, Najafgarh Road, Janakpuri, New Delhi, ",
    "City": "NEW DELHI",
    "State": "Delhi",
    "Pincode": 110058,
    "Phone": 40404070,
    "no": 7060,
    "TPAs": [
      "1",
      "2",
      "3",
      "5",
      "14",
      "10",
      "8",
      "6",
      "9",
      "4",
      "11",
      "13",
      "12",
      "10"
    ],
    "Latitude": 28.6240554,
    "Longitude": 77.0622583
  },
  {
    "HospitalName": "Lj Eye Institute, AMBALA City",
    "Address": "251 Model Town",
    "City": "Ambala",
    "State": "Haryana",
    "Pincode": 134003,
    "Phone": 252255,
    "no": 7061,
    "TPAs": [
      "1",
      "2",
      "3",
      "5",
      "14",
      "10",
      "8",
      "6",
      "9",
      "4",
      "11",
      "13",
      "12",
      "10"
    ],
    "Latitude": 30.3421927,
    "Longitude": 76.76912589999999
  },
  {
    "HospitalName": "SHREYASH PATIL MULTISPECIALITY HOSPITAL AND NURSING HOME ",
    "Address": "IN FRONT OF DHARAMKATA, NAGPUR ROAD, SAONER ",
    "City": "saoner ",
    "State": "Maharashtra",
    "Pincode": 441107,
    "Phone": "07113-234222",
    "no": 7062,
    "TPAs": [
      "1",
      "2",
      "3",
      "5",
      "14",
      "10",
      "8",
      "6",
      "9",
      "4",
      "11",
      "13",
      "12",
      "10"
    ],
    "Latitude": 21.2603518,
    "Longitude": 79.233837
  },
  {
    "HospitalName": "Polaris Hospital (A Unit Of S.S Healthcare)",
    "Address": "Sector 48, Sohana Road, Opposite Rahaja Mall,",
    "City": "Gurgaon",
    "State": "Haryana",
    "Pincode": 122018,
    "Phone": "7178889/7178890",
    "no": 7068,
    "TPAs": [
      "1",
      "2",
      "3",
      "5",
      "14",
      "10",
      "8",
      "6",
      "9",
      "4",
      "11",
      "13",
      "12",
      "10"
    ],
    "Latitude": 28.4212391,
    "Longitude": 77.0376046
  },
  {
    "HospitalName": "Jitendra Narayan Ray Sishu Seva Bhawan",
    "Address": "58/1S, Raja Dinendra Street, ",
    "City": "Kolkata",
    "State": "West Bengal",
    "Pincode": 700006,
    "Phone": 29852985,
    "no": 7071,
    "TPAs": [
      "1",
      "2",
      "3",
      "5",
      "14",
      "10",
      "8",
      "6",
      "9",
      "4",
      "11",
      "13",
      "12",
      "10"
    ],
    "Latitude": 22.5833464,
    "Longitude": 88.37628959999999
  },
  {
    "HospitalName": "NAVJYOT HOSPITAL",
    "Address": "OPP SANTRAM VYAYAM SHALA",
    "City": "NADIAD",
    "State": "Gujarat",
    "Pincode": 387001,
    "Phone": 8160817562,
    "no": 7072,
    "TPAs": [
      "1",
      "2",
      "3",
      "5",
      "14",
      "10",
      "8",
      "6",
      "9",
      "4",
      "11",
      "13",
      "12",
      "10"
    ],
    "Latitude": 22.6885354,
    "Longitude": 72.86879619999999
  },
  {
    "HospitalName": "HYMAVTHI MULTI SPECIALITY  HOSPITAL",
    "Address": "16-7-53, RAMAMURTHY NAGAR",
    "City": "NELLORE",
    "State": "Andhra Pradesh",
    "Pincode": 524002,
    "Phone": 2347180,
    "no": 7073,
    "TPAs": [
      "1",
      "2",
      "3",
      "5",
      "14",
      "10",
      "8",
      "6",
      "9",
      "4",
      "11",
      "13",
      "12",
      "10"
    ],
    "Latitude": 14.4458063,
    "Longitude": 79.9864956
  },
  {
    "HospitalName": "SRI UDAI MULTI SPECIALITY HOSPITAL",
    "Address": "# 1-8-441, 442",
    "City": "Warangal",
    "State": "Telangana",
    "Pincode": 506001,
    "Phone": 2577573,
    "no": 7075,
    "TPAs": [
      "1",
      "2",
      "3",
      "5",
      "14",
      "10",
      "8",
      "6",
      "9",
      "4",
      "11",
      "13",
      "12",
      "10"
    ],
    "Latitude": 17.9692624,
    "Longitude": 79.59263039999999
  },
  {
    "HospitalName": "AIMS HOSPITAL",
    "Address": "OPP SBI BANK ANAJAIH ROAD",
    "City": "ONGOLE ",
    "State": "Andhra Pradesh",
    "Pincode": 523001,
    "Phone": 9581670318,
    "no": 7077,
    "TPAs": [
      "1",
      "2",
      "3",
      "5",
      "14",
      "10",
      "8",
      "6",
      "9",
      "4",
      "11",
      "13",
      "12",
      "10"
    ],
    "Latitude": 15.5109743,
    "Longitude": 80.03725349999999
  },
  {
    "HospitalName": "Mira MultiSpeciality Hospital",
    "Address": "301-305 Radhe Fortune Apllo Circle,S.P.Ring Road",
    "City": "Gandhi Nagar",
    "State": "Gujarat",
    "Pincode": 382428,
    "Phone": 9724037998,
    "no": 7080,
    "TPAs": [
      "1",
      "2",
      "3",
      "5",
      "14",
      "10",
      "8",
      "6",
      "9",
      "4",
      "11",
      "13",
      "12",
      "10"
    ],
    "Latitude": 23.1158797,
    "Longitude": 72.6320254
  },
  {
    "HospitalName": "Infinite Vision Care and Laser Centre",
    "Address": "301, 3rd floor, Raj Oak Building,MTNL Road,Sheetal Nagar",
    "City": "Thane",
    "State": "Maharashtra",
    "Pincode": 401107,
    "Phone": 9655236672,
    "no": 7082,
    "TPAs": [
      "1",
      "2",
      "3",
      "5",
      "14",
      "10",
      "8",
      "6",
      "9",
      "4",
      "11",
      "13",
      "12",
      "10"
    ],
    "Latitude": 19.2818738,
    "Longitude": 72.8683645
  },
  {
    "HospitalName": "Care Hospital Trauma And ICU",
    "Address": "2nd & 3rd Floor Galaxy Trio, Halol Vadodara Road",
    "City": "Halol",
    "State": "Gujarat",
    "Pincode": 389350,
    "Phone": "8980040222, 8980054222",
    "no": 7085,
    "TPAs": [
      "1",
      "2",
      "3",
      "5",
      "14",
      "10",
      "8",
      "6",
      "9",
      "4",
      "11",
      "13",
      "12",
      "10"
    ],
    "Latitude": 22.5007695,
    "Longitude": 73.4725284
  },
  {
    "HospitalName": "STAR SPECIALITY HOSPITAL",
    "Address": "Shankeshwar Pride building, 2nd,  floor",
    "City": "Pune",
    "State": "Maharashtra",
    "Pincode": 412105,
    "Phone": null,
    "no": 7087,
    "TPAs": [
      "1",
      "2",
      "3",
      "5",
      "14",
      "10",
      "8",
      "6",
      "9",
      "4",
      "11",
      "13",
      "12",
      "10"
    ],
    "Latitude": 18.5246091,
    "Longitude": 73.8786239
  },
  {
    "HospitalName": "Metro Lifecare Hospital",
    "Address": "1st floor, Sonam Shopping centre, Mira Road",
    "City": "Thane",
    "State": "Maharashtra",
    "Pincode": 401107,
    "Phone": 7208171741,
    "no": 7088,
    "TPAs": [
      "1",
      "2",
      "3",
      "5",
      "14",
      "10",
      "8",
      "6",
      "9",
      "4",
      "11",
      "13",
      "12",
      "10"
    ],
    "Latitude": 19.2948644,
    "Longitude": 72.8595364
  },
  {
    "HospitalName": "YADAV SUPERSPECIALITY HOSPITAL",
    "Address": "112, SHAHNOOR MIA DARGA ROAD, ",
    "City": "AURANGABAD",
    "State": "Maharashtra",
    "Pincode": 431005,
    "Phone": null,
    "no": 7090,
    "TPAs": [
      "1",
      "2",
      "3",
      "5",
      "14",
      "10",
      "8",
      "6",
      "9",
      "4",
      "11",
      "13",
      "12",
      "10"
    ],
    "Latitude": 19.8618455,
    "Longitude": 75.3358523
  },
  {
    "HospitalName": "ABHINAV EYE CARE CENTRE'S",
    "Address": "PLOT NO: 10-102-61/594, OM VIHAR COLONY, MEDIPALLY, BEHIND APEX HOSPITAL, HYDERABAD-500089",
    "City": "Hyderabad",
    "State": "Telangana",
    "Pincode": 500089,
    "Phone": 27203580,
    "no": 7091,
    "TPAs": [
      "1",
      "2",
      "3",
      "5",
      "14",
      "10",
      "8",
      "6",
      "9",
      "4",
      "11",
      "13",
      "12",
      "10"
    ],
    "Latitude": 17.4074224,
    "Longitude": 78.5982779
  },
  {
    "HospitalName": "Prabhat Shri Hospital",
    "Address": "C-10, Padmanabh Nagar, Prabhat Square",
    "City": "Bhopal",
    "State": "Madhya Pradesh",
    "Pincode": 462023,
    "Phone": 49520111,
    "no": 7092,
    "TPAs": [
      "1",
      "2",
      "3",
      "5",
      "14",
      "10",
      "8",
      "6",
      "9",
      "4",
      "11",
      "13",
      "12",
      "10"
    ],
    "Latitude": 23.2507339,
    "Longitude": 77.43134119999999
  },
  {
    "HospitalName": "SRI VENKATESWARA MULTISPECIALITY HOSPITAL",
    "Address": "D.No 50-121",
    "City": "GUNTUR",
    "State": "Andhra Pradesh",
    "Pincode": 522002,
    "Phone": 2251869,
    "no": 7096,
    "TPAs": [
      "1",
      "2",
      "3",
      "5",
      "14",
      "10",
      "8",
      "6",
      "9",
      "4",
      "11",
      "13",
      "12",
      "10"
    ],
    "Latitude": 16.2985206,
    "Longitude": 80.4556044
  },
  {
    "HospitalName": "Yogyam Hospital",
    "Address": "Vartak Arcade, Ambadi Road",
    "City": "Mumbai",
    "State": "Maharashtra",
    "Pincode": 401202,
    "Phone": 7558770957,
    "no": 7097,
    "TPAs": [
      "1",
      "2",
      "3",
      "5",
      "14",
      "10",
      "8",
      "6",
      "9",
      "4",
      "11",
      "13",
      "12",
      "10"
    ],
    "Latitude": 19.3927599,
    "Longitude": 72.8300884
  },
  {
    "HospitalName": "M/s. Sigma Hospital",
    "Address": "H.No.7-1-161, Laxmipur, ",
    "City": "Warangal",
    "State": "Telangana",
    "Pincode": 506001,
    "Phone": 9885888605,
    "no": 7098,
    "TPAs": [
      "1",
      "2",
      "3",
      "5",
      "14",
      "10",
      "8",
      "6",
      "9",
      "4",
      "11",
      "13",
      "12",
      "10"
    ],
    "Latitude": 18.0022341,
    "Longitude": 79.5669286
  },
  {
    "HospitalName": "Samarpan Multispeciality Hospital",
    "Address": "Sunlite corner building, S V Road",
    "City": "Mumbai",
    "State": "Maharashtra",
    "Pincode": 400068,
    "Phone": 40066583,
    "no": 7100,
    "TPAs": [
      "1",
      "2",
      "3",
      "5",
      "14",
      "10",
      "8",
      "6",
      "9",
      "4",
      "11",
      "13",
      "12",
      "10"
    ],
    "Latitude": 19.0511352,
    "Longitude": 72.8380294
  },
  {
    "HospitalName": "DR.B.JAWAHAR NURSING HOME ",
    "Address": "DOOR NO: 2-59/A",
    "City": "Chimakurthi",
    "State": "Andhra Pradesh",
    "Pincode": 523226,
    "Phone": "?272528",
    "no": 7102,
    "TPAs": [
      "1",
      "2",
      "3",
      "5",
      "14",
      "10",
      "8",
      "6",
      "9",
      "4",
      "11",
      "13",
      "12",
      "10"
    ],
    "Latitude": 15.585811,
    "Longitude": 79.8672101
  },
  {
    "HospitalName": "Shri Dhanwantri Multispecialty Hospital",
    "Address": "MPCT Campus, Sirol Road",
    "City": "Gwalior",
    "State": "Maharashtra",
    "Pincode": 474001,
    "Phone": null,
    "no": 7103,
    "TPAs": [
      "1",
      "2",
      "3",
      "5",
      "14",
      "10",
      "8",
      "6",
      "9",
      "4",
      "11",
      "13",
      "12",
      "10"
    ],
    "Latitude": 19.7514798,
    "Longitude": 75.7138884
  },
  {
    "HospitalName": "Bhairav care and cure Hospital",
    "Address": "Shop no 5,6,7,8 Jagannath dham,",
    "City": "Thane",
    "State": "Maharashtra",
    "Pincode": 401101,
    "Phone": 8879740001,
    "no": 7104,
    "TPAs": [
      "1",
      "2",
      "3",
      "5",
      "14",
      "10",
      "8",
      "6",
      "9",
      "4",
      "11",
      "13",
      "12",
      "10"
    ],
    "Latitude": 19.2123057,
    "Longitude": 72.9771623
  },
  {
    "HospitalName": "CHIRANJIV HOSPITAL",
    "Address": "5 vardhaman chamber near krishna hotel ",
    "City": "jalgaon",
    "State": "Maharashtra",
    "Pincode": 425002,
    "Phone": 2951553,
    "no": 7106,
    "TPAs": [
      "1",
      "2",
      "3",
      "5",
      "14",
      "10",
      "8",
      "6",
      "9",
      "4",
      "11",
      "13",
      "12",
      "10"
    ],
    "Latitude": 21.0175831,
    "Longitude": 75.5367267
  },
  {
    "HospitalName": "Nair Superspeciality Eye Hospital",
    "Address": "Plot no 14, Road No 16, Sector 11, ",
    "City": "Raigad",
    "State": "Maharashtra",
    "Pincode": 410206,
    "Phone": 27461444,
    "no": 7111,
    "TPAs": [
      "1",
      "2",
      "3",
      "5",
      "14",
      "10",
      "8",
      "6",
      "9",
      "4",
      "11",
      "13",
      "12",
      "10"
    ],
    "Latitude": 18.9995185,
    "Longitude": 73.1231785
  },
  {
    "HospitalName": "Ashirwad urology and laparoscopy hospital",
    "Address": "1st floor, Amkay Plaza, opp. Vikrant Bldg, Nr Hemmady Regency, Malbhat, Margao,GOA 403601",
    "City": "Margao",
    "State": "Goa",
    "Pincode": 403601,
    "Phone": 2736460,
    "no": 7112,
    "TPAs": [
      "1",
      "2",
      "3",
      "5",
      "14",
      "10",
      "8",
      "6",
      "9",
      "4",
      "11",
      "13",
      "12",
      "10"
    ],
    "Latitude": 15.2706106,
    "Longitude": 73.964545
  },
  {
    "HospitalName": "Dr.Shakeen Eye And Dental Hospital ",
    "Address": "391, Green Avneue, Amritsar ,Punjab-143001",
    "City": "Amritsar",
    "State": "Punjab",
    "Pincode": 143001,
    "Phone": 9814150026,
    "no": 7113,
    "TPAs": [
      "1",
      "2",
      "3",
      "5",
      "14",
      "10",
      "8",
      "6",
      "9",
      "4",
      "11",
      "13",
      "12",
      "10"
    ],
    "Latitude": 31.6446741,
    "Longitude": 74.8598693
  },
  {
    "HospitalName": "Shri Guruji Rugnalaya",
    "Address": "Anandwalli Chowk, ",
    "City": "Nashik",
    "State": "Maharashtra",
    "Pincode": 422013,
    "Phone": 2343401,
    "no": 7114,
    "TPAs": [
      "1",
      "2",
      "3",
      "5",
      "14",
      "10",
      "8",
      "6",
      "9",
      "4",
      "11",
      "13",
      "12",
      "10"
    ],
    "Latitude": 20.0117144,
    "Longitude": 73.7486131
  },
  {
    "HospitalName": "khavte accident and orthopedic hospital",
    "Address": "lingali road, near new court",
    "City": "Daund",
    "State": "Maharashtra",
    "Pincode": 413801,
    "Phone": 0,
    "no": 7118,
    "TPAs": [
      "1",
      "2",
      "3",
      "5",
      "14",
      "10",
      "8",
      "6",
      "9",
      "4",
      "11",
      "13",
      "12",
      "10"
    ],
    "Latitude": 18.4574415,
    "Longitude": 74.5868667
  },
  {
    "HospitalName": "Dr Chaudhary Hospital And Medical Research Centre Pvt Ltd",
    "Address": "473 SECTOR-4 HIRAN MAGRI",
    "City": "Udaipur",
    "State": "Rajasthan",
    "Pincode": 313002,
    "Phone": 2465566,
    "no": 7122,
    "TPAs": [
      "1",
      "2",
      "3",
      "5",
      "14",
      "10",
      "8",
      "6",
      "9",
      "4",
      "11",
      "13",
      "12",
      "10"
    ],
    "Latitude": 24.566533,
    "Longitude": 73.72166279999999
  },
  {
    "HospitalName": "SANT GAJANAN MAHARJ RURAL HOSPITAL& RESEARCH CENTER",
    "Address": "A/P MAHAGAON  TAL -GADHINGLAJ , DIST- KOLHAPUR",
    "City": "Gadhinglaj",
    "State": "Maharashtra",
    "Pincode": 416503,
    "Phone": 0,
    "no": 7125,
    "TPAs": [
      "1",
      "2",
      "3",
      "5",
      "14",
      "10",
      "8",
      "6",
      "9",
      "4",
      "11",
      "13",
      "12",
      "10"
    ],
    "Latitude": 16.1594678,
    "Longitude": 74.3778064
  },
  {
    "HospitalName": "KANTHI NURSING HOME",
    "Address": "APMC CIRCLE, KANTHI NAGAR, NAVANAGAR",
    "City": "Bagalkot",
    "State": "Karnataka",
    "Pincode": 587103,
    "Phone": 357516,
    "no": 7127,
    "TPAs": [
      "1",
      "2",
      "3",
      "5",
      "14",
      "10",
      "8",
      "6",
      "9",
      "4",
      "11",
      "13",
      "12",
      "10"
    ],
    "Latitude": 8.345260699999999,
    "Longitude": 77.75229770000001
  },
  {
    "HospitalName": "GLOBAL HOSPITAL YERWADA ",
    "Address": "GANGA COMPLEX OLD AIR PORT ROAD ,YERWADA ",
    "City": "PUNE",
    "State": "Maharashtra",
    "Pincode": 411006,
    "Phone": 2026680200,
    "no": 7129,
    "TPAs": [
      "1",
      "2",
      "3",
      "5",
      "14",
      "10",
      "8",
      "6",
      "9",
      "4",
      "11",
      "13",
      "12",
      "10"
    ],
    "Latitude": 18.5493285,
    "Longitude": 73.88891819999999
  },
  {
    "HospitalName": "Amaltas institute of medical sciences",
    "Address": "Ujjain Dewas Highway",
    "City": "Dewas",
    "State": "Madhya Pradesh",
    "Pincode": 455001,
    "Phone": 426514,
    "no": 7132,
    "TPAs": [
      "1",
      "2",
      "3",
      "5",
      "14",
      "10",
      "8",
      "6",
      "9",
      "4",
      "11",
      "13",
      "12",
      "10"
    ],
    "Latitude": 23.0632105,
    "Longitude": 75.9163433
  },
  {
    "HospitalName": "NAMOKAR EYE AND OCULOPLASTY CENTRE( UNIT OF KALOS HEALTHCARE PVT LTD )",
    "Address": "13 A, POCKET A , ASHOK VIHAR, DELHI, ",
    "City": "New Delhi",
    "State": "Delhi",
    "Pincode": 110052,
    "Phone": 40392563,
    "no": 7134,
    "TPAs": [
      "1",
      "2",
      "3",
      "5",
      "14",
      "10",
      "8",
      "6",
      "9",
      "4",
      "11",
      "13",
      "12",
      "10"
    ],
    "Latitude": 28.6949305,
    "Longitude": 77.1795435
  }
]