[
  {
    "HospitalName": "Meena Nuring Home",
    "Address": "T.K.Road, Bhadravathi, Shimoga[Dist]",
    "City": "Bhadravathy",
    "State": "Karnataka",
    "Pincode": 580029,
    "Phone": "08282 - 266665 / 265505",
    "no": 1773,
    "TPAs": [
      "1",
      "2",
      "3",
      "5",
      "14",
      "10",
      "8",
      "6",
      "9",
      "4",
      "11",
      "13",
      "12",
      "10"
    ],
    "Latitude": 13.8448087,
    "Longitude": 75.71000699999999
  },
  {
    "HospitalName": "Korbu Womens Care Hospital",
    "Address": "PLOT NO. 12, NAVBAG",
    "City": "Bijapur",
    "State": "Karnataka",
    "Pincode": 586101,
    "Phone": "223078/223079",
    "no": 1785,
    "TPAs": [
      "1",
      "2",
      "3",
      "5",
      "14",
      "10",
      "8",
      "6",
      "9",
      "4",
      "11",
      "13",
      "12",
      "10"
    ],
    "Latitude": 16.8241725,
    "Longitude": 75.7123532
  },
  {
    "HospitalName": "Shri Ganpatlal Agarwal Memorial Ayush Hospital And Research Centre Pvt Limited",
    "Address": "PL. NO.  135-137",
    "City": "Bijapur",
    "State": "Karnataka",
    "Pincode": 586109,
    "Phone": 276000,
    "no": 1786,
    "TPAs": [
      "1",
      "2",
      "3",
      "5",
      "14",
      "10",
      "8",
      "6",
      "9",
      "4",
      "11",
      "13",
      "12",
      "10"
    ],
    "Latitude": 16.866641,
    "Longitude": 75.75096099999999
  },
  {
    "HospitalName": "Suguna Matrernity And General Hospital",
    "Address": "Behind Godavari Lodge, Sastri Nagar , Bijapur",
    "City": "Bijapur",
    "State": "Karnataka",
    "Pincode": 576101,
    "Phone": "08352 - 272342 / 650552",
    "no": 1787,
    "TPAs": [
      "1",
      "2",
      "3",
      "5",
      "14",
      "10",
      "8",
      "6",
      "9",
      "4",
      "11",
      "13",
      "12",
      "10"
    ],
    "Latitude": 16.8231298,
    "Longitude": 75.7501272
  },
  {
    "HospitalName": "Vasudev Hospitals Private Limited",
    "Address": "DESAI CHAWL,MEENAXI CHOWK",
    "City": "Bijapur",
    "State": "Karnataka",
    "Pincode": 586101,
    "Phone": "222106/09",
    "no": 1788,
    "TPAs": [
      "1",
      "2",
      "3",
      "5",
      "14",
      "10",
      "8",
      "6",
      "9",
      "4",
      "11",
      "13",
      "12",
      "10"
    ],
    "Latitude": 16.8288121,
    "Longitude": 75.7115341
  },
  {
    "HospitalName": "Sri Thirumala Hospital Challakere",
    "Address": "SHANTHI NAGAR, BEHIND LIC OFFICE",
    "City": "Challakere",
    "State": "Karnataka",
    "Pincode": 577522,
    "Phone": "08195-223692",
    "no": 1789,
    "TPAs": [
      "1",
      "2",
      "3",
      "5",
      "14",
      "10",
      "8",
      "6",
      "9",
      "4",
      "11",
      "13",
      "12",
      "10"
    ],
    "Latitude": 14.31639,
    "Longitude": 76.6462468
  },
  {
    "HospitalName": "KRS MULTISPECIALITY HOSPITAL PRIVATE LIMITED",
    "Address": "BASAVANAHALLI MAIN ROAD",
    "City": "Chickmagalore",
    "State": "karnataka",
    "Pincode": 577101,
    "Phone": 8197653572,
    "no": 1799,
    "TPAs": [
      "1",
      "2",
      "3",
      "5",
      "14",
      "10",
      "8",
      "6",
      "9",
      "4",
      "11",
      "13",
      "12",
      "10"
    ],
    "Latitude": 13.3308236,
    "Longitude": 75.7749558
  },
  {
    "HospitalName": "Prashamani Hospital",
    "Address": "Balagadi Road Koppa",
    "City": "Chickmagalore",
    "State": "Karnataka",
    "Pincode": 577126,
    "Phone": "8265-221996",
    "no": 1800,
    "TPAs": [
      "1",
      "2",
      "3",
      "5",
      "14",
      "10",
      "8",
      "6",
      "9",
      "4",
      "11",
      "13",
      "12",
      "10"
    ],
    "Latitude": 13.5325561,
    "Longitude": 75.3693469
  },
  {
    "HospitalName": "Poorna Eye Hospital",
    "Address": "Opp. K.E.B. N.R Extension, Chintamani",
    "City": "Chintamani",
    "State": "Karnataka",
    "Pincode": 563125,
    "Phone": 250070,
    "no": 1805,
    "TPAs": [
      "1",
      "2",
      "3",
      "5",
      "14",
      "10",
      "8",
      "6",
      "9",
      "4",
      "11",
      "13",
      "12",
      "10"
    ],
    "Latitude": 13.3981711,
    "Longitude": 78.0547748
  },
  {
    "HospitalName": "R S L Nursing Home",
    "Address": "Near Municipal Office, Chitamani",
    "City": "Chintamani",
    "State": "Karnataka",
    "Pincode": 563125,
    "Phone": "08154 - 255526",
    "no": 1807,
    "TPAs": [
      "1",
      "2",
      "3",
      "5",
      "14",
      "10",
      "8",
      "6",
      "9",
      "4",
      "11",
      "13",
      "12",
      "10"
    ],
    "Latitude": 13.3973893,
    "Longitude": 78.05244019999999
  },
  {
    "HospitalName": "Basaveshwara Hospital And Research Centre Pvt Ltd ",
    "Address": "N.H. 4, By Pass, Near Housing Board Colony",
    "City": "Chitradurga",
    "State": "Karnataka",
    "Pincode": 577501,
    "Phone": "08194 - 227642 / 222054",
    "no": 1809,
    "TPAs": [
      "1",
      "2",
      "3",
      "5",
      "14",
      "10",
      "8",
      "6",
      "9",
      "4",
      "11",
      "13",
      "12",
      "10"
    ],
    "Latitude": 14.2232362,
    "Longitude": 76.4143669
  },
  {
    "HospitalName": "Aaraike Super Speciality Hospital",
    "Address": "#1683/1 NEAR STADIUM HADADI ROAD",
    "City": "Davanagere",
    "State": "Karnataka",
    "Pincode": 577004,
    "Phone": "233446/237446",
    "no": 1812,
    "TPAs": [
      "1",
      "2",
      "3",
      "5",
      "14",
      "10",
      "8",
      "6",
      "9",
      "4",
      "11",
      "13",
      "12",
      "10"
    ],
    "Latitude": 14.4558923,
    "Longitude": 75.92046730000001
  },
  {
    "HospitalName": "Nayana Super Speciality Eye Hospital And Research Center",
    "Address": "No. 2658, 1st Main, Mcc B Block",
    "City": "Davanagere",
    "State": "Karnataka",
    "Pincode": 577004,
    "Phone": "08192 - 220088 / 220078",
    "no": 1821,
    "TPAs": [
      "1",
      "2",
      "3",
      "5",
      "14",
      "10",
      "8",
      "6",
      "9",
      "4",
      "11",
      "13",
      "12",
      "10"
    ],
    "Latitude": 14.4581485,
    "Longitude": 75.9192829
  },
  {
    "HospitalName": "S S Institute Of Medical Science And Reaserch Centre",
    "Address": "P.B.No:01, Jnanshankara, Nh-4, By Pass",
    "City": "Davanagere",
    "State": "Karnataka",
    "Pincode": 577005,
    "Phone": "08192 - 266000 / 266001 / 261805",
    "no": 1823,
    "TPAs": [
      "1",
      "2",
      "3",
      "5",
      "14",
      "10",
      "8",
      "6",
      "9",
      "4",
      "11",
      "13",
      "12",
      "10"
    ],
    "Latitude": 14.4644085,
    "Longitude": 75.921758
  },
  {
    "HospitalName": "Suchethana Multispeciality Hospital",
    "Address": "#284/1.2.3. OPP. Vishveshwariah  park, main gate 4th main PJ EXTENSION",
    "City": "Davanagere",
    "State": "Karnataka",
    "Pincode": 577502,
    "Phone": "230203/9748733116",
    "no": 1827,
    "TPAs": [
      "1",
      "2",
      "3",
      "5",
      "14",
      "10",
      "8",
      "6",
      "9",
      "4",
      "11",
      "13",
      "12",
      "10"
    ],
    "Latitude": 14.4591116,
    "Longitude": 75.9177378
  },
  {
    "HospitalName": "Sukshema Hospital Pvt Ltd ",
    "Address": "Shamanur Road Davangere - 577004",
    "City": "Davanagere",
    "State": "Karnataka",
    "Pincode": 577004,
    "Phone": "08192 - 222310",
    "no": 1828,
    "TPAs": [
      "1",
      "2",
      "3",
      "5",
      "14",
      "10",
      "8",
      "6",
      "9",
      "4",
      "11",
      "13",
      "12",
      "10"
    ],
    "Latitude": 14.4560381,
    "Longitude": 75.909198
  },
  {
    "HospitalName": "Susruta Eye Clinic And Laser Centre",
    "Address": "#212/1A III MAIN ,PJ EXTENSION",
    "City": "Davanagere",
    "State": "Karnataka",
    "Pincode": 577002,
    "Phone": 250675,
    "no": 1829,
    "TPAs": [
      "1",
      "2",
      "3",
      "5",
      "14",
      "10",
      "8",
      "6",
      "9",
      "4",
      "11",
      "13",
      "12",
      "10"
    ],
    "Latitude": 14.4632982,
    "Longitude": 75.9169391
  },
  {
    "HospitalName": "Dr S R Ramanagoudar Hospital And Nursing Home",
    "Address": "Malapur Cross Dharwad - 8",
    "City": "Dharwad",
    "State": "Karnataka",
    "Pincode": 580008,
    "Phone": "0836 - 2228236 / 2742245",
    "no": 1830,
    "TPAs": [
      "1",
      "2",
      "3",
      "5",
      "14",
      "10",
      "8",
      "6",
      "9",
      "4",
      "11",
      "13",
      "12",
      "10"
    ],
    "Latitude": 15.4671774,
    "Longitude": 75.00823969999999
  },
  {
    "HospitalName": "Spandana Hosptial",
    "Address": "SAPTAPUR",
    "City": "Dharwad",
    "State": "Karnataka",
    "Pincode": 580005,
    "Phone": 2771191,
    "no": 1833,
    "TPAs": [
      "1",
      "2",
      "3",
      "5",
      "14",
      "10",
      "8",
      "6",
      "9",
      "4",
      "11",
      "13",
      "12",
      "10"
    ],
    "Latitude": 15.4485797,
    "Longitude": 74.9880895
  },
  {
    "HospitalName": "Chirayu Critical Care",
    "Address": "TONTADARYA COLLEGE OF ENGINEERING CAMPUS,",
    "City": "Gadag",
    "State": "Karnataka",
    "Pincode": 582103,
    "Phone": "221922/9483902922",
    "no": 1838,
    "TPAs": [
      "1",
      "2",
      "3",
      "5",
      "14",
      "10",
      "8",
      "6",
      "9",
      "4",
      "11",
      "13",
      "12",
      "10"
    ],
    "Latitude": 15.4129232,
    "Longitude": 75.6364593
  },
  {
    "HospitalName": "L Y Desai Memorial Sparsh Multispeciality Hospital",
    "Address": "RADHAKRISHNA NAGAR,NEAR MULGUNEL ROAD",
    "City": "Gadag",
    "State": "Karnataka",
    "Pincode": 582103,
    "Phone": 297250,
    "no": 1840,
    "TPAs": [
      "1",
      "2",
      "3",
      "5",
      "14",
      "10",
      "8",
      "6",
      "9",
      "4",
      "11",
      "13",
      "12",
      "10"
    ],
    "Latitude": 15.4048142,
    "Longitude": 75.60894309999999
  },
  {
    "HospitalName": "Mahatma Gandhi Multispeciality Hospital And Research Center",
    "Address": "NEAR NEW BUS STAND MUNDARGI ROAD",
    "City": "Gadag",
    "State": "Karnataka",
    "Pincode": 582101,
    "Phone": "2234599/9008371363",
    "no": 1841,
    "TPAs": [
      "1",
      "2",
      "3",
      "5",
      "14",
      "10",
      "8",
      "6",
      "9",
      "4",
      "11",
      "13",
      "12",
      "10"
    ],
    "Latitude": 15.41756,
    "Longitude": 75.6364408
  },
  {
    "HospitalName": "Tanya Speciality Hospital",
    "Address": "3Rd Cross Sampige Road, Opp. Focus Scan Kr Puram",
    "City": "Hassan",
    "State": "Karnataka",
    "Pincode": 573201,
    "Phone": 8951144831,
    "no": 1855,
    "TPAs": [
      "1",
      "2",
      "3",
      "5",
      "14",
      "10",
      "8",
      "6",
      "9",
      "4",
      "11",
      "13",
      "12",
      "10"
    ],
    "Latitude": 13.0049939,
    "Longitude": 76.1083988
  },
  {
    "HospitalName": "Basavaraj Hospital",
    "Address": "Nrupathurnaga Extention , Hiriyur, Chitraduraga District",
    "City": "Hiriyur",
    "State": "Karnataka",
    "Pincode": 572143,
    "Phone": "08193 - 227550 / 220430",
    "no": 1857,
    "TPAs": [
      "1",
      "2",
      "3",
      "5",
      "14",
      "10",
      "8",
      "6",
      "9",
      "4",
      "11",
      "13",
      "12",
      "10"
    ],
    "Latitude": 13.9401779,
    "Longitude": 76.6210062
  },
  {
    "HospitalName": "G E F Eye Hospital",
    "Address": "A.I.R Extension, Old Madras Road",
    "City": "Hoskote",
    "State": "Karnataka",
    "Pincode": 562114,
    "Phone": "8111-650501 / 650502 / 650503",
    "no": 1859,
    "TPAs": [
      "1",
      "2",
      "3",
      "5",
      "14",
      "10",
      "8",
      "6",
      "9",
      "4",
      "11",
      "13",
      "12",
      "10"
    ],
    "Latitude": 13.067277,
    "Longitude": 77.78025269999999
  },
  {
    "HospitalName": "Mvj Medical College And Research Hospital",
    "Address": "Dandupalya Kolathurpost, Hoskote, Nh-04",
    "City": "Hoskote",
    "State": "Karnataka",
    "Pincode": 562114,
    "Phone": "080 - 27932244",
    "no": 1860,
    "TPAs": [
      "1",
      "2",
      "3",
      "5",
      "14",
      "10",
      "8",
      "6",
      "9",
      "4",
      "11",
      "13",
      "12",
      "10"
    ],
    "Latitude": 13.0775142,
    "Longitude": 77.81162239999999
  },
  {
    "HospitalName": "Umakanth Eye Hospital",
    "Address": "PATEL NAGAR",
    "City": "Hospet",
    "State": "Karnataka",
    "Pincode": 583201,
    "Phone": 220677,
    "no": 1864,
    "TPAs": [
      "1",
      "2",
      "3",
      "5",
      "14",
      "10",
      "8",
      "6",
      "9",
      "4",
      "11",
      "13",
      "12",
      "10"
    ],
    "Latitude": 15.2773734,
    "Longitude": 76.3878848
  },
  {
    "HospitalName": "Disha Super Speciality Eye Hospital And Research Center",
    "Address": "#52 3RD FLOOR VISHNUPRIYA COMPLEX ",
    "City": "Hubli",
    "State": "Karnataka",
    "Pincode": 580029,
    "Phone": 2256655,
    "no": 1867,
    "TPAs": [
      "1",
      "2",
      "3",
      "5",
      "14",
      "10",
      "8",
      "6",
      "9",
      "4",
      "11",
      "13",
      "12",
      "10"
    ],
    "Latitude": 15.3539571,
    "Longitude": 75.1399557
  },
  {
    "HospitalName": "Dr K H Jituri Hospital",
    "Address": "Hosur Cross , Hubli",
    "City": "Hubli",
    "State": "Karnataka",
    "Pincode": 580021,
    "Phone": "0836 - 2372811 / 2371811",
    "no": 1870,
    "TPAs": [
      "1",
      "2",
      "3",
      "5",
      "14",
      "10",
      "8",
      "6",
      "9",
      "4",
      "11",
      "13",
      "12",
      "10"
    ],
    "Latitude": 15.3536083,
    "Longitude": 75.13066719999999
  },
  {
    "HospitalName": "Dr R B Patil Hospital",
    "Address": "Vidya Nagar, Hubli",
    "City": "Hubli",
    "State": "Karnataka",
    "Pincode": 580021,
    "Phone": "0836 - 2378152 / 2228214",
    "no": 1871,
    "TPAs": [
      "1",
      "2",
      "3",
      "5",
      "14",
      "10",
      "8",
      "6",
      "9",
      "4",
      "11",
      "13",
      "12",
      "10"
    ],
    "Latitude": 15.3586032,
    "Longitude": 75.1263831
  },
  {
    "HospitalName": "Drishti Eye Care And Research Centre",
    "Address": "UGF \u2013 3, shet ballet, opp kadasiddeshwar arts college, vidyanagar, hubli",
    "City": "Hubli",
    "State": "Karnataka",
    "Pincode": 580021,
    "Phone": "2373970/9483748970",
    "no": 1872,
    "TPAs": [
      "1",
      "2",
      "3",
      "5",
      "14",
      "10",
      "8",
      "6",
      "9",
      "4",
      "11",
      "13",
      "12",
      "10"
    ],
    "Latitude": 15.364465,
    "Longitude": 75.12351470000002
  },
  {
    "HospitalName": "Fortis Suchirayu Hospital",
    "Address": "29/8,9,10,Javali Garden,Off. Gokul Road",
    "City": "Hubli",
    "State": "Karnataka",
    "Pincode": 580030,
    "Phone": "0836 - 2239000",
    "no": 1873,
    "TPAs": [
      "1",
      "2",
      "3",
      "5",
      "14",
      "10",
      "8",
      "6",
      "9",
      "4",
      "11",
      "13",
      "12",
      "10"
    ],
    "Latitude": 15.3526056,
    "Longitude": 75.1244712
  },
  {
    "HospitalName": "G V Eye World",
    "Address": "SHWETHA COMPLEX, GROUND FLOOR,Opp. Mini Vidhana Soudha,Lamington road",
    "City": "Hubli",
    "State": "Karnataka",
    "Pincode": 580020,
    "Phone": 4261010,
    "no": 1874,
    "TPAs": [
      "1",
      "2",
      "3",
      "5",
      "14",
      "10",
      "8",
      "6",
      "9",
      "4",
      "11",
      "13",
      "12",
      "10"
    ],
    "Latitude": 15.3499802,
    "Longitude": 75.1399995
  },
  {
    "HospitalName": "Shakuntala Memorial Hospital And Research Centre",
    "Address": "50 /51 \u00a0Golden Town \u00a0Hosur \u00a0Unkal Bypass Road \u00a0Vidyanagar",
    "City": "Hubli",
    "State": "Karnataka",
    "Pincode": 580021,
    "Phone": "0836 - 2228271 / 0836 - 2228272",
    "no": 1883,
    "TPAs": [
      "1",
      "2",
      "3",
      "5",
      "14",
      "10",
      "8",
      "6",
      "9",
      "4",
      "11",
      "13",
      "12",
      "10"
    ],
    "Latitude": 15.3629328,
    "Longitude": 75.1218631
  },
  {
    "HospitalName": "Sparsham Childcare Care Hospital",
    "Address": "VITHOBA NAGAR, NEAR GOLDEN TOWN",
    "City": "Hubli",
    "State": "Karnataka",
    "Pincode": 580020,
    "Phone": "2277656/57/58",
    "no": 1884,
    "TPAs": [
      "1",
      "2",
      "3",
      "5",
      "14",
      "10",
      "8",
      "6",
      "9",
      "4",
      "11",
      "13",
      "12",
      "10"
    ],
    "Latitude": 15.3527083,
    "Longitude": 75.1269133
  },
  {
    "HospitalName": "Bhoruka Nethralaya, Unit of Vikassanum Education and welfare trust",
    "Address": "behind akashwani(AIR) near samadhan ashram",
    "City": "Kalaburagi",
    "State": "Karnataka",
    "Pincode": 585102,
    "Phone": 6361861055,
    "no": 1890,
    "TPAs": [
      "1",
      "2",
      "3",
      "5",
      "14",
      "10",
      "8",
      "6",
      "9",
      "4",
      "11",
      "13",
      "12",
      "10"
    ],
    "Latitude": 17.2777924,
    "Longitude": 76.8283904
  },
  {
    "HospitalName": "Dr Patils Ent Clinic Speech And Hearing Centre",
    "Address": "1-29/36, Geeta, Behind Court, Gulbarga",
    "City": "Kalaburagi",
    "State": "Karnataka",
    "Pincode": 585102,
    "Phone": "08472 - 225059",
    "no": 1892,
    "TPAs": [
      "1",
      "2",
      "3",
      "5",
      "14",
      "10",
      "8",
      "6",
      "9",
      "4",
      "11",
      "13",
      "12",
      "10"
    ],
    "Latitude": 17.329731,
    "Longitude": 76.8342957
  },
  {
    "HospitalName": "Gulbarga Heart Foundation",
    "Address": "STBT CROSS NEAR BIG BAZAAR",
    "City": "Kalaburagi",
    "State": "Karnataka",
    "Pincode": 585101,
    "Phone": 240210,
    "no": 1893,
    "TPAs": [
      "1",
      "2",
      "3",
      "5",
      "14",
      "10",
      "8",
      "6",
      "9",
      "4",
      "11",
      "13",
      "12",
      "10"
    ],
    "Latitude": 17.3333435,
    "Longitude": 76.8406409
  },
  {
    "HospitalName": "L M Care Maternity And General Hospital",
    "Address": "4-601/33/9b, Barey Hills Ring Road, Gulbarga",
    "City": "Kalaburagi",
    "State": "Karnataka",
    "Pincode": 585105,
    "Phone": "08472 - 245226",
    "no": 1896,
    "TPAs": [
      "1",
      "2",
      "3",
      "5",
      "14",
      "10",
      "8",
      "6",
      "9",
      "4",
      "11",
      "13",
      "12",
      "10"
    ],
    "Latitude": 17.3390411,
    "Longitude": 76.8560395
  },
  {
    "HospitalName": "Spandana Meternity And General Hospital",
    "Address": "Manglore Road, Karkala",
    "City": "Karkala",
    "State": "Karnataka",
    "Pincode": 574104,
    "Phone": "08258 - 232227",
    "no": 1898,
    "TPAs": [
      "1",
      "2",
      "3",
      "5",
      "14",
      "10",
      "8",
      "6",
      "9",
      "4",
      "11",
      "13",
      "12",
      "10"
    ],
    "Latitude": 13.2112538,
    "Longitude": 74.9973509
  },
  {
    "HospitalName": "Dr Nukapur Hospital",
    "Address": "Sharada Talkies Road, Ksrtc Bus Stand",
    "City": "Kolar",
    "State": "Karnataka",
    "Pincode": 563101,
    "Phone": "08152 - 320444 / 320555 / 401764",
    "no": 1900,
    "TPAs": [
      "1",
      "2",
      "3",
      "5",
      "14",
      "10",
      "8",
      "6",
      "9",
      "4",
      "11",
      "13",
      "12",
      "10"
    ],
    "Latitude": 13.135822,
    "Longitude": 78.12921039999999
  },
  {
    "HospitalName": "Sri Rajarajeshwari Hospital",
    "Address": "Block No 11, Near Patrika Bhavan Industrial EState",
    "City": "Madikeri",
    "State": "Karnataka",
    "Pincode": 571201,
    "Phone": "8272-220171 / 220191 / 221529",
    "no": 1909,
    "TPAs": [
      "1",
      "2",
      "3",
      "5",
      "14",
      "10",
      "8",
      "6",
      "9",
      "4",
      "11",
      "13",
      "12",
      "10"
    ],
    "Latitude": 12.4242134,
    "Longitude": 75.7336347
  },
  {
    "HospitalName": "Vivus Hospital Pvt Ltd ",
    "Address": "Daswal, Madikeri",
    "City": "Madikeri",
    "State": "Karnataka",
    "Pincode": 571201,
    "Phone": "08272 - 222658 / 222958 / 229758",
    "no": 1910,
    "TPAs": [
      "1",
      "2",
      "3",
      "5",
      "14",
      "10",
      "8",
      "6",
      "9",
      "4",
      "11",
      "13",
      "12",
      "10"
    ],
    "Latitude": 12.4251875,
    "Longitude": 75.73928409999999
  },
  {
    "HospitalName": "G Madegowda Super Speciality Hospital(A Unit Of Vritika Hospital)",
    "Address": "#1889 bharathi nagar, Mandya",
    "City": "Mandya",
    "State": "Karnataka",
    "Pincode": 571422,
    "Phone": 209208,
    "no": 1913,
    "TPAs": [
      "1",
      "2",
      "3",
      "5",
      "14",
      "10",
      "8",
      "6",
      "9",
      "4",
      "11",
      "13",
      "12",
      "10"
    ],
    "Latitude": 12.3388017,
    "Longitude": 76.6293318
  },
  {
    "HospitalName": "Surabhi Hospital And Icc",
    "Address": "K R Road, Ashok Nagar, Malavalli",
    "City": "Mandya",
    "State": "Karnataka",
    "Pincode": 571401,
    "Phone": "08232 - 230311",
    "no": 1920,
    "TPAs": [
      "1",
      "2",
      "3",
      "5",
      "14",
      "10",
      "8",
      "6",
      "9",
      "4",
      "11",
      "13",
      "12",
      "10"
    ],
    "Latitude": 12.5242916,
    "Longitude": 76.8947766
  },
  {
    "HospitalName": "A J Hospital And Research Centre",
    "Address": "Mangalore-Udupi Highway \u00a0Kuntikana \u00a0Mangalore-575004, Mangalore",
    "City": "Mangaluru",
    "State": "Karnataka",
    "Pincode": 575004,
    "Phone": "0824 - 2225534 / 2225535",
    "no": 1923,
    "TPAs": [
      "1",
      "2",
      "3",
      "5",
      "14",
      "10",
      "8",
      "6",
      "9",
      "4",
      "11",
      "13",
      "12",
      "10"
    ],
    "Latitude": 12.8993521,
    "Longitude": 74.8460278
  },
  {
    "HospitalName": "City Hospital And Research And Diagnostic Centre",
    "Address": "Pound Garden, Kadri, Mangalore",
    "City": "Mangaluru",
    "State": "Karnataka",
    "Pincode": 560070,
    "Phone": "0824 - 2217901 / 2217902 / 2217903",
    "no": 1926,
    "TPAs": [
      "1",
      "2",
      "3",
      "5",
      "14",
      "10",
      "8",
      "6",
      "9",
      "4",
      "11",
      "13",
      "12",
      "10"
    ],
    "Latitude": 12.8804608,
    "Longitude": 74.85915779999999
  },
  {
    "HospitalName": "Father Muller Medical College And Hospital",
    "Address": "Father Muller Road Kankanady",
    "City": "Mangaluru",
    "State": "Karnataka",
    "Pincode": 575002,
    "Phone": "0824 - 2436301 / 2436303 / 2436302",
    "no": 1928,
    "TPAs": [
      "1",
      "2",
      "3",
      "5",
      "14",
      "10",
      "8",
      "6",
      "9",
      "4",
      "11",
      "13",
      "12",
      "10"
    ],
    "Latitude": 12.8666684,
    "Longitude": 74.8586997
  },
  {
    "HospitalName": "First Neuro Brain & Spine Super Speciality Hospital",
    "Address": "KANNUR VILLAGE, PAOIL PO ",
    "City": "Mangaluru",
    "State": "Karnataka",
    "Pincode": 575007,
    "Phone": 4293333,
    "no": 1929,
    "TPAs": [
      "1",
      "2",
      "3",
      "5",
      "14",
      "10",
      "8",
      "6",
      "9",
      "4",
      "11",
      "13",
      "12",
      "10"
    ],
    "Latitude": 12.8703897,
    "Longitude": 74.89564880000002
  },
  {
    "HospitalName": "Justisce K S Hegde Charitable Hospital",
    "Address": "Unit Of Nitte Education Trust, Medical Sciences Complex, University Road, Deralakatta",
    "City": "Mangaluru",
    "State": "Karnataka",
    "Pincode": 574610,
    "Phone": "0824 - 2204471",
    "no": 1931,
    "TPAs": [
      "1",
      "2",
      "3",
      "5",
      "14",
      "10",
      "8",
      "6",
      "9",
      "4",
      "11",
      "13",
      "12",
      "10"
    ],
    "Latitude": 12.8078662,
    "Longitude": 74.8882412
  },
  {
    "HospitalName": "K M C Hospital",
    "Address": "Ambedkar Circle, Balamatta Road",
    "City": "Mangaluru",
    "State": "Karnataka",
    "Pincode": 575001,
    "Phone": "0824 - 2445858/2444590",
    "no": 1932,
    "TPAs": [
      "1",
      "2",
      "3",
      "5",
      "14",
      "10",
      "8",
      "6",
      "9",
      "4",
      "11",
      "13",
      "12",
      "10"
    ],
    "Latitude": 12.8719806,
    "Longitude": 74.84883630000002
  },
  {
    "HospitalName": "Kmc Hospital",
    "Address": "Ng Road Attavar,\u00a0Mangalore",
    "City": "Mangaluru",
    "State": "Karnataka",
    "Pincode": 575001,
    "Phone": "0824 - 2428379 /2445858 /2445858",
    "no": 1933,
    "TPAs": [
      "1",
      "2",
      "3",
      "5",
      "14",
      "10",
      "8",
      "6",
      "9",
      "4",
      "11",
      "13",
      "12",
      "10"
    ],
    "Latitude": 12.8590356,
    "Longitude": 74.84808819999999
  },
  {
    "HospitalName": "Prasad Nethralaya",
    "Address": "NEAR MAHAKALI TEMPLE,",
    "City": "Mangaluru",
    "State": "Karnataka",
    "Pincode": 575002,
    "Phone": 4276565,
    "no": 1937,
    "TPAs": [
      "1",
      "2",
      "3",
      "5",
      "14",
      "10",
      "8",
      "6",
      "9",
      "4",
      "11",
      "13",
      "12",
      "10"
    ],
    "Latitude": 12.9947513,
    "Longitude": 74.8323025
  },
  {
    "HospitalName": "Prathiba Eye Hospital",
    "Address": "Opposite Syndicate Bank, Kadri Road",
    "City": "Mangaluru",
    "State": "Karnataka",
    "Pincode": 575003,
    "Phone": "0824 - 2225060",
    "no": 1938,
    "TPAs": [
      "1",
      "2",
      "3",
      "5",
      "14",
      "10",
      "8",
      "6",
      "9",
      "4",
      "11",
      "13",
      "12",
      "10"
    ],
    "Latitude": 12.8789837,
    "Longitude": 74.8520267
  },
  {
    "HospitalName": "S C S Hospitals Pvt Ltd ",
    "Address": "Upper Bendore Mangalore - 575002",
    "City": "Mangaluru",
    "State": "Karnataka",
    "Pincode": 575002,
    "Phone": "0824 - 2225201 / 2225202 / 2225203",
    "no": 1939,
    "TPAs": [
      "1",
      "2",
      "3",
      "5",
      "14",
      "10",
      "8",
      "6",
      "9",
      "4",
      "11",
      "13",
      "12",
      "10"
    ],
    "Latitude": 12.8743557,
    "Longitude": 74.8552663
  },
  {
    "HospitalName": "Sri Srinivasa Nethralaya",
    "Address": "NEAR ICICI BAN,\u00a0 APOORVA JEWEL BUILDING",
    "City": "Mangaluru",
    "State": "Karnataka",
    "Pincode": 574227,
    "Phone": 6364750801,
    "no": 1940,
    "TPAs": [
      "1",
      "2",
      "3",
      "5",
      "14",
      "10",
      "8",
      "6",
      "9",
      "4",
      "11",
      "13",
      "12",
      "10"
    ],
    "Latitude": 13.0655033,
    "Longitude": 74.9906852
  },
  {
    "HospitalName": "Srinivas Institute Of Medical Science And Research Centre",
    "Address": "SRINIVAS NAGAR,  MUKKA SURATHKAL",
    "City": "Mangaluru",
    "State": "Karnataka",
    "Pincode": 574146,
    "Phone": 2478586,
    "no": 1941,
    "TPAs": [
      "1",
      "2",
      "3",
      "5",
      "14",
      "10",
      "8",
      "6",
      "9",
      "4",
      "11",
      "13",
      "12",
      "10"
    ],
    "Latitude": 13.0120532,
    "Longitude": 74.7966079
  },
  {
    "HospitalName": "Tejasvini Hospital Ssiot",
    "Address": "Kadri Temple Road",
    "City": "Mangaluru",
    "State": "Karnataka",
    "Pincode": 575002,
    "Phone": "0824 - 2225777",
    "no": 1942,
    "TPAs": [
      "1",
      "2",
      "3",
      "5",
      "14",
      "10",
      "8",
      "6",
      "9",
      "4",
      "11",
      "13",
      "12",
      "10"
    ],
    "Latitude": 12.8802774,
    "Longitude": 74.85372389999999
  },
  {
    "HospitalName": "YENEPOYA MEDICAL  AND DENTAL COLLEGE HOSPITAL",
    "Address": "NITHYANANDA NAGAR, DELAKATTE",
    "City": "Mangaluru",
    "State": "Karnataka",
    "Pincode": 575018,
    "Phone": 2206000,
    "no": 1946,
    "TPAs": [
      "1",
      "2",
      "3",
      "5",
      "14",
      "10",
      "8",
      "6",
      "9",
      "4",
      "11",
      "13",
      "12",
      "10"
    ],
    "Latitude": 12.8116879,
    "Longitude": 74.88123639999999
  },
  {
    "HospitalName": "Ks Health Care",
    "Address": "16-21, Mb Diwator Nagar, Hospet Road",
    "City": "Mysuru",
    "State": "Karnataka",
    "Pincode": 583231,
    "Phone": 222422,
    "no": 1968,
    "TPAs": [
      "1",
      "2",
      "3",
      "5",
      "14",
      "10",
      "8",
      "6",
      "9",
      "4",
      "11",
      "13",
      "12",
      "10"
    ],
    "Latitude": 15.3500492,
    "Longitude": 76.1646475
  },
  {
    "HospitalName": "Mahadeshwara Nursing Home",
    "Address": "# 7, Buddamarga, Siddartha Nagar",
    "City": "Mysuru",
    "State": "Karnataka",
    "Pincode": 570007,
    "Phone": "0821 - 2471547 / 2477145 / 2475873",
    "no": 1969,
    "TPAs": [
      "1",
      "2",
      "3",
      "5",
      "14",
      "10",
      "8",
      "6",
      "9",
      "4",
      "11",
      "13",
      "12",
      "10"
    ],
    "Latitude": 12.3069359,
    "Longitude": 76.6845328
  },
  {
    "HospitalName": "Nethradhama Super Speciality",
    "Address": "1118, Geeta Road, Near Ballal Circle, Chamrajpuram",
    "City": "Mysuru",
    "State": "Karnataka",
    "Pincode": 570005,
    "Phone": 2333600,
    "no": 1971,
    "TPAs": [
      "1",
      "2",
      "3",
      "5",
      "14",
      "10",
      "8",
      "6",
      "9",
      "4",
      "11",
      "13",
      "12",
      "10"
    ],
    "Latitude": 12.2973057,
    "Longitude": 76.641379
  },
  {
    "HospitalName": "Netra Jyothi Eye Hospital",
    "Address": "1027, Panchamantra Main Road, Opp Sangeetha Mobile Shop, G&H Block, Kuvempunagar, Mysore 23",
    "City": "Mysuru",
    "State": "Karnataka",
    "Pincode": 570023,
    "Phone": "0821 - 4266053",
    "no": 1972,
    "TPAs": [
      "1",
      "2",
      "3",
      "5",
      "14",
      "10",
      "8",
      "6",
      "9",
      "4",
      "11",
      "13",
      "12",
      "10"
    ],
    "Latitude": 12.2882835,
    "Longitude": 76.6269313
  },
  {
    "HospitalName": "Nj Hospital",
    "Address": "ASHOKA ROAD, YELWALA",
    "City": "Mysuru",
    "State": "Karnataka",
    "Pincode": 571130,
    "Phone": "2972010/2972011",
    "no": 1974,
    "TPAs": [
      "1",
      "2",
      "3",
      "5",
      "14",
      "10",
      "8",
      "6",
      "9",
      "4",
      "11",
      "13",
      "12",
      "10"
    ],
    "Latitude": 12.3481587,
    "Longitude": 76.5515849
  },
  {
    "HospitalName": "Pragathi Vision Super Speciality Eye Hospital",
    "Address": "#1-E, Mysore Markera Road, Hinkal",
    "City": "Mysuru",
    "State": "Karnataka",
    "Pincode": 570017,
    "Phone": "0821 - 2412500 / 4008888",
    "no": 1975,
    "TPAs": [
      "1",
      "2",
      "3",
      "5",
      "14",
      "10",
      "8",
      "6",
      "9",
      "4",
      "11",
      "13",
      "12",
      "10"
    ],
    "Latitude": 12.3304654,
    "Longitude": 76.60329759999999
  },
  {
    "HospitalName": "Ramakrishan Hospital",
    "Address": "No 1120/F58b, Ist Main Vidyaranya Puram, Mysore",
    "City": "Mysuru",
    "State": "Karnataka",
    "Pincode": 570008,
    "Phone": "0821 - 4289603",
    "no": 1976,
    "TPAs": [
      "1",
      "2",
      "3",
      "5",
      "14",
      "10",
      "8",
      "6",
      "9",
      "4",
      "11",
      "13",
      "12",
      "10"
    ],
    "Latitude": 12.286107,
    "Longitude": 76.651742
  },
  {
    "HospitalName": "Sneha Eye Hospital",
    "Address": "#451/1,2ND FLOOR JLB ROAD,CHAMRAJPURAM",
    "City": "Mysuru",
    "State": "Karnataka",
    "Pincode": 570005,
    "Phone": 4269960,
    "no": 1979,
    "TPAs": [
      "1",
      "2",
      "3",
      "5",
      "14",
      "10",
      "8",
      "6",
      "9",
      "4",
      "11",
      "13",
      "12",
      "10"
    ],
    "Latitude": 12.2992714,
    "Longitude": 76.64254
  },
  {
    "HospitalName": "SRI JAYADEVA INSTITUTE OF CARDIOVASCULAR AND RESEARCH CENTRE",
    "Address": "KRS ROAD ",
    "City": "Mysuru",
    "State": "Karnataka",
    "Pincode": 570016,
    "Phone": 2336144,
    "no": 1980,
    "TPAs": [
      "1",
      "2",
      "3",
      "5",
      "14",
      "10",
      "8",
      "6",
      "9",
      "4",
      "11",
      "13",
      "12",
      "10"
    ],
    "Latitude": 12.3426703,
    "Longitude": 76.6297696
  },
  {
    "HospitalName": "Suyog Hospital( A Unit Of Arogya Samaste)",
    "Address": "P/2 DAKSHINESHWAR ROAD E&F BLOCK",
    "City": "Mysuru",
    "State": "Karnataka",
    "Pincode": 570022,
    "Phone": 2566966,
    "no": 1983,
    "TPAs": [
      "1",
      "2",
      "3",
      "5",
      "14",
      "10",
      "8",
      "6",
      "9",
      "4",
      "11",
      "13",
      "12",
      "10"
    ],
    "Latitude": 12.2822609,
    "Longitude": 76.62013379999999
  },
  {
    "HospitalName": "Vikram Jeev Operated By Advika Hospital Llp",
    "Address": "NEW NO. 500, NO 304/2",
    "City": "Mysuru",
    "State": "Karnataka",
    "Pincode": 570020,
    "Phone": "4851844/7338227788",
    "no": 1985,
    "TPAs": [
      "1",
      "2",
      "3",
      "5",
      "14",
      "10",
      "8",
      "6",
      "9",
      "4",
      "11",
      "13",
      "12",
      "10"
    ],
    "Latitude": 12.3227211,
    "Longitude": 76.6373211
  },
  {
    "HospitalName": "M K Bhandari Hospital",
    "Address": "Gunj Road \u00a0Opp To Goushala",
    "City": "Raichur",
    "State": "Karnataka",
    "Pincode": 584102,
    "Phone": "08532 - 235611 / 9945798306 / 9844115528",
    "no": 1996,
    "TPAs": [
      "1",
      "2",
      "3",
      "5",
      "14",
      "10",
      "8",
      "6",
      "9",
      "4",
      "11",
      "13",
      "12",
      "10"
    ],
    "Latitude": 16.215869,
    "Longitude": 77.3549413
  },
  {
    "HospitalName": "Vijaya Polyclinic And Nursing Home",
    "Address": "#1-9-21 & 22/1",
    "City": "Raichur",
    "State": "Karnataka",
    "Pincode": 584101,
    "Phone": 230777,
    "no": 1998,
    "TPAs": [
      "1",
      "2",
      "3",
      "5",
      "14",
      "10",
      "8",
      "6",
      "9",
      "4",
      "11",
      "13",
      "12",
      "10"
    ],
    "Latitude": 16.2047877,
    "Longitude": 77.3552519
  },
  {
    "HospitalName": "Vvr Chaitanya Hospital",
    "Address": "Vvr Complex, Daddy Colony",
    "City": "Raichur",
    "State": "Karnataka",
    "Pincode": 584101,
    "Phone": "08532 - 220184 / 651865",
    "no": 1999,
    "TPAs": [
      "1",
      "2",
      "3",
      "5",
      "14",
      "10",
      "8",
      "6",
      "9",
      "4",
      "11",
      "13",
      "12",
      "10"
    ],
    "Latitude": 16.2075554,
    "Longitude": 77.34162069999999
  },
  {
    "HospitalName": "Malnad Ent Institute And Research Institute",
    "Address": "BEHIND METRO HOSPITAL JAYANAGARA 1ST CROSS",
    "City": "Shimoga",
    "State": "Karnataka",
    "Pincode": 577201,
    "Phone": 226947,
    "no": 2002,
    "TPAs": [
      "1",
      "2",
      "3",
      "5",
      "14",
      "10",
      "8",
      "6",
      "9",
      "4",
      "11",
      "13",
      "12",
      "10"
    ],
    "Latitude": 13.9416433,
    "Longitude": 75.5752016
  },
  {
    "HospitalName": "Malnad Hospital And Institute Of Oncology",
    "Address": "9th Milestone, B.H. Road Opp.Bidare Bus Stop",
    "City": "Shimoga",
    "State": "Karnataka",
    "Pincode": 577222,
    "Phone": "08182 - 246800",
    "no": 2003,
    "TPAs": [
      "1",
      "2",
      "3",
      "5",
      "14",
      "10",
      "8",
      "6",
      "9",
      "4",
      "11",
      "13",
      "12",
      "10"
    ],
    "Latitude": 13.887797,
    "Longitude": 75.642575
  },
  {
    "HospitalName": "Maxx Super Speciality Hospital",
    "Address": "RMR ROAD PARK EXTENSION DURGIGUDI",
    "City": "Shimoga",
    "State": "Karnataka",
    "Pincode": 577201,
    "Phone": "269400/401",
    "no": 2004,
    "TPAs": [
      "1",
      "2",
      "3",
      "5",
      "14",
      "10",
      "8",
      "6",
      "9",
      "4",
      "11",
      "13",
      "12",
      "10"
    ],
    "Latitude": 13.9359281,
    "Longitude": 75.57258759999999
  },
  {
    "HospitalName": "Metro United Healthcare",
    "Address": "SHIVAMURTHY CIRCLE,SAVALANGA ROAD",
    "City": "Shimoga",
    "State": "Karnataka",
    "Pincode": 577201,
    "Phone": "270001/7829290505",
    "no": 2005,
    "TPAs": [
      "1",
      "2",
      "3",
      "5",
      "14",
      "10",
      "8",
      "6",
      "9",
      "4",
      "11",
      "13",
      "12",
      "10"
    ],
    "Latitude": 13.9403644,
    "Longitude": 75.5750035
  },
  {
    "HospitalName": "Subbaiah Medical College Hospital And Research Center",
    "Address": "Nh 13, Purlae Village",
    "City": "Shimoga",
    "State": "Karnataka",
    "Pincode": 577222,
    "Phone": "08182 - 295604",
    "no": 2010,
    "TPAs": [
      "1",
      "2",
      "3",
      "5",
      "14",
      "10",
      "8",
      "6",
      "9",
      "4",
      "11",
      "13",
      "12",
      "10"
    ],
    "Latitude": 13.9302449,
    "Longitude": 75.6077147
  },
  {
    "HospitalName": "Sushodha Institute Of Gastro Enterology Pvt Ltd",
    "Address": "344/745, WARD NO. 04",
    "City": "Shimoga",
    "State": "Karnataka",
    "Pincode": 577201,
    "Phone": "402274/402275",
    "no": 2011,
    "TPAs": [
      "1",
      "2",
      "3",
      "5",
      "14",
      "10",
      "8",
      "6",
      "9",
      "4",
      "11",
      "13",
      "12",
      "10"
    ],
    "Latitude": 13.9299299,
    "Longitude": 75.568101
  },
  {
    "HospitalName": "Vivekananda Hospital And Maternity Home",
    "Address": "Thilak Nagar, Shimoga",
    "City": "Shimoga",
    "State": "Karnataka",
    "Pincode": 577201,
    "Phone": "08182 - 224350 / 222745",
    "no": 2014,
    "TPAs": [
      "1",
      "2",
      "3",
      "5",
      "14",
      "10",
      "8",
      "6",
      "9",
      "4",
      "11",
      "13",
      "12",
      "10"
    ],
    "Latitude": 13.9299299,
    "Longitude": 75.568101
  },
  {
    "HospitalName": "Maarikamba Hospital And Diagnostic Centre",
    "Address": "Veersavarkar Road, Bellekere",
    "City": "Sirsi",
    "State": "Karnataka",
    "Pincode": 581401,
    "Phone": "08384 - 228132 / 229597",
    "no": 2015,
    "TPAs": [
      "1",
      "2",
      "3",
      "5",
      "14",
      "10",
      "8",
      "6",
      "9",
      "4",
      "11",
      "13",
      "12",
      "10"
    ],
    "Latitude": 14.6155109,
    "Longitude": 74.8347096
  },
  {
    "HospitalName": "Sripad Hegde Kadave Institute Of Medical Science",
    "Address": "Sirsi \u2013 Karnataka, Karnataka",
    "City": "Sirsi",
    "State": "Karnataka",
    "Pincode": 581402,
    "Phone": "08384 - 234843 / 234833",
    "no": 2018,
    "TPAs": [
      "1",
      "2",
      "3",
      "5",
      "14",
      "10",
      "8",
      "6",
      "9",
      "4",
      "11",
      "13",
      "12",
      "10"
    ],
    "Latitude": 14.6322692,
    "Longitude": 74.8463154
  },
  {
    "HospitalName": "Sri Krishna Orthopedic Centre And Nursing Home",
    "Address": "A2ad Road, Shimoga",
    "City": "Thirtahalli",
    "State": "Karnataka",
    "Pincode": 577438,
    "Phone": "8181-228631",
    "no": 2020,
    "TPAs": [
      "1",
      "2",
      "3",
      "5",
      "14",
      "10",
      "8",
      "6",
      "9",
      "4",
      "11",
      "13",
      "12",
      "10"
    ],
    "Latitude": 13.9299299,
    "Longitude": 75.568101
  },
  {
    "HospitalName": "Dr Thammaiah Hospital",
    "Address": "# 519/A, Belagunba Road , Kuvempunagar, Tumkur",
    "City": "Tumkur",
    "State": "Karnataka",
    "Pincode": 572103,
    "Phone": "0816 - 2274174",
    "no": 2027,
    "TPAs": [
      "1",
      "2",
      "3",
      "5",
      "14",
      "10",
      "8",
      "6",
      "9",
      "4",
      "11",
      "13",
      "12",
      "10"
    ],
    "Latitude": 13.3426105,
    "Longitude": 77.11938239999999
  },
  {
    "HospitalName": "Sree Siddaganga Hospitals Pvt Limited",
    "Address": "Dr. SREE SREE SHIVAKUMARA  SWAMIJI ROAD",
    "City": "Tumkur",
    "State": "Karnataka",
    "Pincode": 572102,
    "Phone": 6602222,
    "no": 2034,
    "TPAs": [
      "1",
      "2",
      "3",
      "5",
      "14",
      "10",
      "8",
      "6",
      "9",
      "4",
      "11",
      "13",
      "12",
      "10"
    ],
    "Latitude": 13.3382152,
    "Longitude": 77.1150416
  },
  {
    "HospitalName": "Adarsha Multispeciality Hospital",
    "Address": "Near Service Sus Stand, Udupi",
    "City": "Udupi",
    "State": "Karnataka",
    "Pincode": 576101,
    "Phone": "0820 - 2535289 / 2535290 / 2535291 / 2535292",
    "no": 2037,
    "TPAs": [
      "1",
      "2",
      "3",
      "5",
      "14",
      "10",
      "8",
      "6",
      "9",
      "4",
      "11",
      "13",
      "12",
      "10"
    ],
    "Latitude": 13.3422873,
    "Longitude": 74.74727899999999
  },
  {
    "HospitalName": "C S I Lombard Memorial Hospital",
    "Address": "Chitpady",
    "City": "Udupi",
    "State": "Karnataka",
    "Pincode": 576101,
    "Phone": "0820 - 2527455 / 2520334 / 2520384",
    "no": 2038,
    "TPAs": [
      "1",
      "2",
      "3",
      "5",
      "14",
      "10",
      "8",
      "6",
      "9",
      "4",
      "11",
      "13",
      "12",
      "10"
    ],
    "Latitude": 13.3295781,
    "Longitude": 74.7485258
  },
  {
    "HospitalName": "Dr T M A Pai Hospital",
    "Address": "Opp. Taluk Office",
    "City": "Udupi",
    "State": "Karnataka",
    "Pincode": 576101,
    "Phone": "0820 - 2526501 / 2526502 ",
    "no": 2040,
    "TPAs": [
      "1",
      "2",
      "3",
      "5",
      "14",
      "10",
      "8",
      "6",
      "9",
      "4",
      "11",
      "13",
      "12",
      "10"
    ],
    "Latitude": 13.3323983,
    "Longitude": 74.7470072
  },
  {
    "HospitalName": "Dr. NR ACHARYA MEMORIAL HOSPITAL",
    "Address": "NH66  KOTESHWARA, KUNDAPURA TALUK",
    "City": "Udupi",
    "State": "Karnataka",
    "Pincode": 576222,
    "Phone": "261170/261270/261150",
    "no": 2041,
    "TPAs": [
      "1",
      "2",
      "3",
      "5",
      "14",
      "10",
      "8",
      "6",
      "9",
      "4",
      "11",
      "13",
      "12",
      "10"
    ],
    "Latitude": 13.5909471,
    "Longitude": 74.69740000000002
  },
  {
    "HospitalName": "Mahalaxmi Eye Clinic And Laser Centre",
    "Address": "Ground floor, Kalmanje Towers, Opp. Harsha Furniture, Lalbahadur Shastri Road",
    "City": "Udupi",
    "State": "Karnataka",
    "Pincode": 576101,
    "Phone": "0820 - 2523909, 2525316 / 8722274321, 7026242221",
    "no": 2043,
    "TPAs": [
      "1",
      "2",
      "3",
      "5",
      "14",
      "10",
      "8",
      "6",
      "9",
      "4",
      "11",
      "13",
      "12",
      "10"
    ],
    "Latitude": 13.3358613,
    "Longitude": 74.7465543
  },
  {
    "HospitalName": "New City Multispecialtiy Hospital",
    "Address": "Opp. Shanieswar Temple , Kadabettu Vidyaranaya Marg, Udupi",
    "City": "Udupi",
    "State": "Karnataka",
    "Pincode": 576101,
    "Phone": "0820 - 2563131 / 32 / 33 / 34 / 35 / 36",
    "no": 2046,
    "TPAs": [
      "1",
      "2",
      "3",
      "5",
      "14",
      "10",
      "8",
      "6",
      "9",
      "4",
      "11",
      "13",
      "12",
      "10"
    ],
    "Latitude": 13.3383675,
    "Longitude": 74.7450703
  },
  {
    "HospitalName": "Sdm(Shri Dharmasthala Manjunatheshwara) Hospital",
    "Address": "OPP. POST OFFICE, CHARMADY ROAD",
    "City": "Ujire",
    "State": "Karnataka",
    "Pincode": 574240,
    "Phone": 237611,
    "no": 2051,
    "TPAs": [
      "1",
      "2",
      "3",
      "5",
      "14",
      "10",
      "8",
      "6",
      "9",
      "4",
      "11",
      "13",
      "12",
      "10"
    ],
    "Latitude": 12.9905742,
    "Longitude": 75.33271529999999
  },
  {
    "HospitalName": "SAI NETHRALAYA",
    "Address": "BASAVESHWARA COMPLEX, BUS STAND ROAD, UK DISTRICT",
    "City": "YELLAPUR",
    "State": "Karnataka",
    "Pincode": 581359,
    "Phone": 261622,
    "no": 2053,
    "TPAs": [
      "1",
      "2",
      "3",
      "5",
      "14",
      "10",
      "8",
      "6",
      "9",
      "4",
      "11",
      "13",
      "12",
      "10"
    ],
    "Latitude": 14.9631432,
    "Longitude": 74.7126768
  },
  {
    "HospitalName": "C A Hospital",
    "Address": "Desom",
    "City": "Aluva",
    "State": "Kerala",
    "Pincode": 683102,
    "Phone": "0484 2604887/2607132",
    "no": 2057,
    "TPAs": [
      "1",
      "2",
      "3",
      "5",
      "14",
      "10",
      "8",
      "6",
      "9",
      "4",
      "11",
      "13",
      "12",
      "10"
    ],
    "Latitude": 10.1289517,
    "Longitude": 76.3442744
  },
  {
    "HospitalName": "Karothkuzhi Hospital P Ltd",
    "Address": "Karothukuzhi Junction \u00a0Aluva",
    "City": "Aluva",
    "State": "Kerala",
    "Pincode": 683101,
    "Phone": "0484 - 2625228 / 2621001",
    "no": 2058,
    "TPAs": [
      "1",
      "2",
      "3",
      "5",
      "14",
      "10",
      "8",
      "6",
      "9",
      "4",
      "11",
      "13",
      "12",
      "10"
    ],
    "Latitude": 10.1052594,
    "Longitude": 76.3510463
  },
  {
    "HospitalName": "Kochi Eye Care Centre",
    "Address": "Opp. UC College Aluva",
    "City": "Aluva",
    "State": "Kerala",
    "Pincode": 683102,
    "Phone": "0484 2607744",
    "no": 2059,
    "TPAs": [
      "1",
      "2",
      "3",
      "5",
      "14",
      "10",
      "8",
      "6",
      "9",
      "4",
      "11",
      "13",
      "12",
      "10"
    ],
    "Latitude": 10.1260614,
    "Longitude": 76.3309982
  },
  {
    "HospitalName": "M A G J Hospital",
    "Address": "Mar Augutine Golden Jubily Hospital Mookkannoor Angamaly",
    "City": "Angamaly",
    "State": "Kerala",
    "Pincode": 683577,
    "Phone": "0484 - 2615486 / 2615393",
    "no": 2063,
    "TPAs": [
      "1",
      "2",
      "3",
      "5",
      "14",
      "10",
      "8",
      "6",
      "9",
      "4",
      "11",
      "13",
      "12",
      "10"
    ],
    "Latitude": 10.2218391,
    "Longitude": 76.4071336
  },
  {
    "HospitalName": "Madonna Health Care",
    "Address": "Aluva Road, Angamaly",
    "City": "Angamaly",
    "State": "Kerala",
    "Pincode": 683572,
    "Phone": "484-245566",
    "no": 2064,
    "TPAs": [
      "1",
      "2",
      "3",
      "5",
      "14",
      "10",
      "8",
      "6",
      "9",
      "4",
      "11",
      "13",
      "12",
      "10"
    ],
    "Latitude": 10.1926394,
    "Longitude": 76.3869289
  },
  {
    "HospitalName": "Malabar Urology Centre Pvt Ltd",
    "Address": "Eranhipalam, Civil Station P.O, Calicut-673020, Kerala State",
    "City": "Calicut",
    "State": "Kerala",
    "Pincode": 673020,
    "Phone": "0495 - 2374706 / 2374826 / 2376822 / 2376823",
    "no": 2072,
    "TPAs": [
      "1",
      "2",
      "3",
      "5",
      "14",
      "10",
      "8",
      "6",
      "9",
      "4",
      "11",
      "13",
      "12",
      "10"
    ],
    "Latitude": 11.2836442,
    "Longitude": 75.79110639999999
  },
  {
    "HospitalName": "Metro International Cardiac Centre Pvt Ltd",
    "Address": "Thondayad Bypass",
    "City": "Calicut",
    "State": "Kerala",
    "Pincode": 673014,
    "Phone": "495-6615555",
    "no": 2073,
    "TPAs": [
      "1",
      "2",
      "3",
      "5",
      "14",
      "10",
      "8",
      "6",
      "9",
      "4",
      "11",
      "13",
      "12",
      "10"
    ],
    "Latitude": 11.25461,
    "Longitude": 75.79192119999999
  }
]