[
  {
    "HospitalName": "Deepak Orthopaedic and general hospital",
    "Address": "Holy Complex , Mira bhaynder Road",
    "City": "Thane",
    "State": "Maharashtra ",
    "Pincode": 401107,
    "Phone": "28555465/28121883",
    "no": 6590,
    "TPAs": [
      "1",
      "2",
      "3",
      "5",
      "14",
      "10",
      "8",
      "6",
      "9",
      "4",
      "11",
      "13",
      "12",
      "10"
    ],
    "Latitude": 19.2924964,
    "Longitude": 72.861941
  },
  {
    "HospitalName": "SEVEN PALM'S HOSPITAL ",
    "Address": "NR PENDULKAR MARRIAGE HALL, ",
    "City": "Badlapur",
    "State": "Maharashtra",
    "Pincode": 421503,
    "Phone": 7066737444,
    "no": 6593,
    "TPAs": [
      "1",
      "2",
      "3",
      "5",
      "14",
      "10",
      "8",
      "6",
      "9",
      "4",
      "11",
      "13",
      "12",
      "10"
    ],
    "Latitude": 19.1596645,
    "Longitude": 73.2280339
  },
  {
    "HospitalName": "Gayatri Multispeciality Hospital",
    "Address": "17, Patel Nagar, Raisen Road",
    "City": "Bhopal",
    "State": "Madhya Pradesh",
    "Pincode": 462022,
    "Phone": "4907555 / 4094555",
    "no": 6595,
    "TPAs": [
      "1",
      "2",
      "3",
      "5",
      "14",
      "10",
      "8",
      "6",
      "9",
      "4",
      "11",
      "13",
      "12",
      "10"
    ],
    "Latitude": 23.250257,
    "Longitude": 77.4993503
  },
  {
    "HospitalName": "Medi-Era Hospitals And Research Institute Pvt Ltd.",
    "Address": "Jobra Road",
    "City": "Cuttack",
    "State": "Odisha",
    "Pincode": 753003,
    "Phone": "2548064/2547060",
    "no": 6597,
    "TPAs": [
      "1",
      "2",
      "3",
      "5",
      "14",
      "10",
      "8",
      "6",
      "9",
      "4",
      "11",
      "13",
      "12",
      "10"
    ],
    "Latitude": 20.47252,
    "Longitude": 85.8967924
  },
  {
    "HospitalName": "Narayani Hospital",
    "Address": "2/2 , RCM , Sector A, ",
    "City": "Indore",
    "State": "Madhya Pradesh",
    "Pincode": 452016,
    "Phone": 2922773,
    "no": 6599,
    "TPAs": [
      "1",
      "2",
      "3",
      "5",
      "14",
      "10",
      "8",
      "6",
      "9",
      "4",
      "11",
      "13",
      "12",
      "10"
    ],
    "Latitude": 22.7126363,
    "Longitude": 75.91200409999999
  },
  {
    "HospitalName": "KASHMIRI HOSPITAL AND HEART CARE CENTRE",
    "Address": "NEAR CIVIL COURT , SUNAM",
    "City": "Sunam",
    "State": "Punjab",
    "Pincode": 148028,
    "Phone": 222786,
    "no": 6602,
    "TPAs": [
      "1",
      "2",
      "3",
      "5",
      "14",
      "10",
      "8",
      "6",
      "9",
      "4",
      "11",
      "13",
      "12",
      "10"
    ],
    "Latitude": 30.1409433,
    "Longitude": 75.814325
  },
  {
    "HospitalName": "MUVATTUPUZHA CO-OPERATIVE SUPER SPECIALITY HOSPITAL AND RESEARCH CENTRE LTD.E.1018",
    "Address": "ONE WAY JUNCTION. ",
    "City": "MUVATTUPUZHA",
    "State": "Kerala",
    "Pincode": 686673,
    "Phone": "2836820/2836868",
    "no": 6603,
    "TPAs": [
      "1",
      "2",
      "3",
      "5",
      "14",
      "10",
      "8",
      "6",
      "9",
      "4",
      "11",
      "13",
      "12",
      "10"
    ],
    "Latitude": 9.9951445,
    "Longitude": 76.5869074
  },
  {
    "HospitalName": "Kusum Maternity And Childrens Hospital",
    "Address": " sadguru arcade, 1st flr, near hdfc bank, opp. modern cafe, phadke cross road., dombivli (e), maharashtra-421201",
    "City": "Thane",
    "State": "Maharashtra",
    "Pincode": 421201,
    "Phone": 2422336,
    "no": 6604,
    "TPAs": [
      "1",
      "2",
      "3",
      "5",
      "14",
      "10",
      "8",
      "6",
      "9",
      "4",
      "11",
      "13",
      "12",
      "10"
    ],
    "Latitude": 19.2195619,
    "Longitude": 73.0904458
  },
  {
    "HospitalName": "SRI LAXMI NURSING HOME ",
    "Address": "H.No.7-6-29/30, Vidya Nagar,",
    "City": "Jagtial",
    "State": "Andhra Pradesh",
    "Pincode": 505327,
    "Phone": 295102,
    "no": 6607,
    "TPAs": [
      "1",
      "2",
      "3",
      "5",
      "14",
      "10",
      "8",
      "6",
      "9",
      "4",
      "11",
      "13",
      "12",
      "10"
    ],
    "Latitude": 18.8006636,
    "Longitude": 78.9250562
  },
  {
    "HospitalName": "Ideal Clinic & Hospital (P) Ltd.",
    "Address": "Bazar Para, Uluberia Howrah",
    "City": "Uluberia",
    "State": "West Bengal",
    "Pincode": 711316,
    "Phone": "9830706505/ 8653499005",
    "no": 6609,
    "TPAs": [
      "1",
      "2",
      "3",
      "5",
      "14",
      "10",
      "8",
      "6",
      "9",
      "4",
      "11",
      "13",
      "12",
      "10"
    ],
    "Latitude": 22.4680173,
    "Longitude": 88.0926818
  },
  {
    "HospitalName": "Chirayu Multispeciality Hospital",
    "Address": "245, kailash vihar, behind sbi zonal office, City centre, gwalior, Gwalior, Madhya Pradesh-474001",
    "City": "Gwalior",
    "State": "Maharashtra",
    "Pincode": 474001,
    "Phone": 2343725,
    "no": 6610,
    "TPAs": [
      "1",
      "2",
      "3",
      "5",
      "14",
      "10",
      "8",
      "6",
      "9",
      "4",
      "11",
      "13",
      "12",
      "10"
    ],
    "Latitude": 26.2066405,
    "Longitude": 78.19511729999999
  },
  {
    "HospitalName": "VARSHITHA HOSPITAL",
    "Address": "ASHOK NAGAR,MIRYALAGUDA",
    "City": "Miryalaguda",
    "State": "Telangana",
    "Pincode": 508207,
    "Phone": 247147,
    "no": 6611,
    "TPAs": [
      "1",
      "2",
      "3",
      "5",
      "14",
      "10",
      "8",
      "6",
      "9",
      "4",
      "11",
      "13",
      "12",
      "10"
    ],
    "Latitude": 16.8668822,
    "Longitude": 79.5572574
  },
  {
    "HospitalName": "DR .R.D MEMORIAL HOSPITAL",
    "Address": "Ward no 3, Nehru Nagar, Chandauli, Uttar Pradesh 232104",
    "City": "CHANDAULI",
    "State": "Uttar Pradesh",
    "Pincode": 232104,
    "Phone": 262253,
    "no": 6613,
    "TPAs": [
      "1",
      "2",
      "3",
      "5",
      "14",
      "10",
      "8",
      "6",
      "9",
      "4",
      "11",
      "13",
      "12",
      "10"
    ],
    "Latitude": 28.65823189999999,
    "Longitude": 77.43531
  },
  {
    "HospitalName": "MIRJI HOSPITAL",
    "Address": "NEAR ROTARY CIRCLE, GODI LAYOUT",
    "City": "BAGALKOT",
    "State": "Karnataka",
    "Pincode": 587101,
    "Phone": 226055,
    "no": 6614,
    "TPAs": [
      "1",
      "2",
      "3",
      "5",
      "14",
      "10",
      "8",
      "6",
      "9",
      "4",
      "11",
      "13",
      "12",
      "10"
    ],
    "Latitude": 16.1746655,
    "Longitude": 75.690568
  },
  {
    "HospitalName": "SHREE SIDDHIVINAYAK MATERNITY HOME & CRITICAL CARE CENTER & TRAUMA CENTRE",
    "Address": "Opposite to Anuradha Theater Near Nashik Road Court, Nashik.",
    "City": "NASHIK",
    "State": "Maharashtra",
    "Pincode": 422101,
    "Phone": 2459561,
    "no": 6618,
    "TPAs": [
      "1",
      "2",
      "3",
      "5",
      "14",
      "10",
      "8",
      "6",
      "9",
      "4",
      "11",
      "13",
      "12",
      "10"
    ],
    "Latitude": 19.9728896,
    "Longitude": 73.8229516
  },
  {
    "HospitalName": "Community Welfafe Society Hospital",
    "Address": "Jagda,Sundergarh",
    "City": "Rourkela",
    "State": "Odisha",
    "Pincode": 769042,
    "Phone": "2473931/27/7852907537",
    "no": 6620,
    "TPAs": [
      "1",
      "2",
      "3",
      "5",
      "14",
      "10",
      "8",
      "6",
      "9",
      "4",
      "11",
      "13",
      "12",
      "10"
    ],
    "Latitude": 22.255401,
    "Longitude": 84.90089329999999
  },
  {
    "HospitalName": "ALPINE SUPERSPECIALITY",
    "Address": "BEED ByPASS AURANGABAD",
    "City": "AURANGABAD",
    "State": "Maharashtra",
    "Pincode": 431001,
    "Phone": 8390094222,
    "no": 6621,
    "TPAs": [
      "1",
      "2",
      "3",
      "5",
      "14",
      "10",
      "8",
      "6",
      "9",
      "4",
      "11",
      "13",
      "12",
      "10"
    ],
    "Latitude": 19.8523684,
    "Longitude": 75.3244642
  },
  {
    "HospitalName": "POSITRON MULTISPECIALITY AND CANCER HOSPITAL",
    "Address": "HEALTHCENTRE PLOT, SUNCity, SECTOR 35, BLOCK B , ROHTAK",
    "City": "ROHTAK",
    "State": "Haryana",
    "Pincode": 124001,
    "Phone": "8571081699/663005",
    "no": 6622,
    "TPAs": [
      "1",
      "2",
      "3",
      "5",
      "14",
      "10",
      "8",
      "6",
      "9",
      "4",
      "11",
      "13",
      "12",
      "10"
    ],
    "Latitude": 28.9118384,
    "Longitude": 76.62683059999999
  },
  {
    "HospitalName": "Ayushmans Multispeciality Hospital & Research Centre",
    "Address": "plot no. 25,27 Shubham nagar,yerkheda, Kalamna Road, Kamptee",
    "City": "Kamptee",
    "State": "Maharashtra",
    "Pincode": 441002,
    "Phone": 295586,
    "no": 6623,
    "TPAs": [
      "1",
      "2",
      "3",
      "5",
      "14",
      "10",
      "8",
      "6",
      "9",
      "4",
      "11",
      "13",
      "12",
      "10"
    ],
    "Latitude": 21.212894,
    "Longitude": 79.1901144
  },
  {
    "HospitalName": "Carcinova Cancer Hospital(Carcinova Pvt Hospital)",
    "Address": "PlotNo-187/982/1282,Khata no-302/231,Nuapatna, Choudwar,Narsinghpur",
    "City": "Cuttack",
    "State": "Odisha",
    "Pincode": 754027,
    "Phone": "9438513693/9861068518",
    "no": 6625,
    "TPAs": [
      "1",
      "2",
      "3",
      "5",
      "14",
      "10",
      "8",
      "6",
      "9",
      "4",
      "11",
      "13",
      "12",
      "10"
    ],
    "Latitude": 20.5466474,
    "Longitude": 85.9120892
  },
  {
    "HospitalName": "KANGAROO CARE WOMENS AND CHILDREN HOSPITAL",
    "Address": "#505, KALIDASA ROAD, VIJAYANAGARA 1ST STAGE",
    "City": "Mysuru",
    "State": "Karnataka",
    "Pincode": 570017,
    "Phone": "2433030/7996711177",
    "no": 6626,
    "TPAs": [
      "1",
      "2",
      "3",
      "5",
      "14",
      "10",
      "8",
      "6",
      "9",
      "4",
      "11",
      "13",
      "12",
      "10"
    ],
    "Latitude": 12.3260768,
    "Longitude": 76.61639199999999
  },
  {
    "HospitalName": "Galaxy Superspeciality Hospital",
    "Address": "Plot No - 10 , Khushwa Bhau thakre Nagar",
    "City": "Jabalpur",
    "State": "Madhya Pradesh",
    "Pincode": 482002,
    "Phone": 4017010,
    "no": 6627,
    "TPAs": [
      "1",
      "2",
      "3",
      "5",
      "14",
      "10",
      "8",
      "6",
      "9",
      "4",
      "11",
      "13",
      "12",
      "10"
    ],
    "Latitude": 23.1782181,
    "Longitude": 79.91216659999999
  },
  {
    "HospitalName": "ELITE HOSPITAL AND CHILD CARE CENTRE",
    "Address": "BHITI RAMNAGAR, BY PASS TENGRA MODH, VARANASI, 221005",
    "City": "Varanasi",
    "State": "Uttar Pradesh",
    "Pincode": 221005,
    "Phone": 9936480039,
    "no": 6631,
    "TPAs": [
      "1",
      "2",
      "3",
      "5",
      "14",
      "10",
      "8",
      "6",
      "9",
      "4",
      "11",
      "13",
      "12",
      "10"
    ],
    "Latitude": 25.2576406,
    "Longitude": 83.03692099999999
  },
  {
    "HospitalName": "ORIANA HOSPITAL",
    "Address": "B-27/35-9-A, RAVINDRA PURI, VARANASI",
    "City": "Varanasi",
    "State": "Uttar Pradesh",
    "Pincode": 221005,
    "Phone": 2310598,
    "no": 6632,
    "TPAs": [
      "1",
      "2",
      "3",
      "5",
      "14",
      "10",
      "8",
      "6",
      "9",
      "4",
      "11",
      "13",
      "12",
      "10"
    ],
    "Latitude": 25.2873447,
    "Longitude": 83.0014133
  },
  {
    "HospitalName": "DR RAKESH MULTISPECIALITY HOSPITAL",
    "Address": "2001, street no. 31, Main Road Swatantra Nagar, Narela, New Delhi, Delhi 110040",
    "City": "NEW DELHI",
    "State": "Delhi",
    "Pincode": 110040,
    "Phone": 9958926307,
    "no": 6636,
    "TPAs": [
      "1",
      "2",
      "3",
      "5",
      "14",
      "10",
      "8",
      "6",
      "9",
      "4",
      "11",
      "13",
      "12",
      "10"
    ],
    "Latitude": 28.84018,
    "Longitude": 77.0823832
  },
  {
    "HospitalName": "Chirayu Children's Maternity & Nursing Home ",
    "Address": "Second floor, Gaikwad sankul, Gaikwad mala,behind Regimental Plaza,Nashik Road ,Nashik",
    "City": "Nashik",
    "State": "Maharashtra",
    "Pincode": 422101,
    "Phone": "2455121  / 2455122",
    "no": 6639,
    "TPAs": [
      "1",
      "2",
      "3",
      "5",
      "14",
      "10",
      "8",
      "6",
      "9",
      "4",
      "11",
      "13",
      "12",
      "10"
    ],
    "Latitude": 19.9526205,
    "Longitude": 73.8361668
  },
  {
    "HospitalName": "CHANDRA EYE CARE HOSPITAL",
    "Address": "A1, S.K. Gupta Colony, Behind V2 Shopping Mart, Lanka, Varanasi",
    "City": "Varanasi",
    "State": "Uttar Pradesh",
    "Pincode": 221005,
    "Phone": 2366537,
    "no": 6640,
    "TPAs": [
      "1",
      "2",
      "3",
      "5",
      "14",
      "10",
      "8",
      "6",
      "9",
      "4",
      "11",
      "13",
      "12",
      "10"
    ],
    "Latitude": 25.2802672,
    "Longitude": 83.0021867
  },
  {
    "HospitalName": "DR GOPAL EYE LASER AND PHACO CENTRE",
    "Address": "RADHA KUNJ , BHARATPUR GATE, MATHURA",
    "City": "Mathura",
    "State": "Uttar Pradesh",
    "Pincode": 281001,
    "Phone": 9837686032,
    "no": 6641,
    "TPAs": [
      "1",
      "2",
      "3",
      "5",
      "14",
      "10",
      "8",
      "6",
      "9",
      "4",
      "11",
      "13",
      "12",
      "10"
    ],
    "Latitude": 27.5012342,
    "Longitude": 77.6788491
  },
  {
    "HospitalName": "Maharaja Agrasen super speciality hospital ",
    "Address": "Central Spine,Sector-7",
    "City": "Jaipur",
    "State": "Rajasthan",
    "Pincode": 302016,
    "Phone": 2334609,
    "no": 6642,
    "TPAs": [
      "1",
      "2",
      "3",
      "5",
      "14",
      "10",
      "8",
      "6",
      "9",
      "4",
      "11",
      "13",
      "12",
      "10"
    ],
    "Latitude": 26.9663225,
    "Longitude": 75.7841955
  },
  {
    "HospitalName": "Shree Sai Multispeciality Hospital & Trauma Care Centre",
    "Address": "7,8,9 Platinum Springs , Plot No 5 , G-19 to G24",
    "City": "Navi Mumbai",
    "State": "Maharashtra",
    "Pincode": 410208,
    "Phone": "9820458909/9850841214",
    "no": 6643,
    "TPAs": [
      "1",
      "2",
      "3",
      "5",
      "14",
      "10",
      "8",
      "6",
      "9",
      "4",
      "11",
      "13",
      "12",
      "10"
    ],
    "Latitude": 19.0330488,
    "Longitude": 73.0296625
  },
  {
    "HospitalName": "SWAMI AMARDEV HOSPITAL",
    "Address": "ASHRAM HARI MANDIR, PATAUDI ",
    "City": "PATAUDI",
    "State": "Haryana",
    "Pincode": 122503,
    "Phone": 26719191,
    "no": 6644,
    "TPAs": [
      "1",
      "2",
      "3",
      "5",
      "14",
      "10",
      "8",
      "6",
      "9",
      "4",
      "11",
      "13",
      "12",
      "10"
    ],
    "Latitude": 28.3254676,
    "Longitude": 76.78246949999999
  },
  {
    "HospitalName": "Gokuldas Hospital",
    "Address": " 11, Dr. Sarju Prasad Marg, Indore, Madhya Pradesh-452001",
    "City": "Indore",
    "State": "Madhya Pradesh",
    "Pincode": 452001,
    "Phone": 2519212,
    "no": 6646,
    "TPAs": [
      "1",
      "2",
      "3",
      "5",
      "14",
      "10",
      "8",
      "6",
      "9",
      "4",
      "11",
      "13",
      "12",
      "10"
    ],
    "Latitude": 22.7192989,
    "Longitude": 75.8422862
  },
  {
    "HospitalName": "ABM Multispeciality Hospital",
    "Address": "05, Motia Talab Road",
    "City": "Bhopal",
    "State": "Madhya Pradesh",
    "Pincode": 462001,
    "Phone": 7552548008,
    "no": 6651,
    "TPAs": [
      "1",
      "2",
      "3",
      "5",
      "14",
      "10",
      "8",
      "6",
      "9",
      "4",
      "11",
      "13",
      "12",
      "10"
    ],
    "Latitude": 23.2633106,
    "Longitude": 77.3938488
  },
  {
    "HospitalName": "Suvidha Hospital & Polyclinic",
    "Address": " 275,3RD ROAD,JAWAHAR NAGAR,GOREGAON (W),MUMBAI, Mumbai, Maharashtra-400104",
    "City": "Mumbai",
    "State": "Maharashtra",
    "Pincode": 400104,
    "Phone": 28720625,
    "no": 6652,
    "TPAs": [
      "1",
      "2",
      "3",
      "5",
      "14",
      "10",
      "8",
      "6",
      "9",
      "4",
      "11",
      "13",
      "12",
      "10"
    ],
    "Latitude": 19.1566604,
    "Longitude": 72.8466984
  },
  {
    "HospitalName": "SEVADHARAM MULTISPECIALITY HOSPITRAL LLP",
    "Address": "Plot No 1,Sector No 9,Santnagar, PCNTDA",
    "City": "PUNE",
    "State": "Maharashtra",
    "Pincode": 412105,
    "Phone": 7028556602,
    "no": 6653,
    "TPAs": [
      "1",
      "2",
      "3",
      "5",
      "14",
      "10",
      "8",
      "6",
      "9",
      "4",
      "11",
      "13",
      "12",
      "10"
    ],
    "Latitude": 18.6547492,
    "Longitude": 73.8397063
  },
  {
    "HospitalName": "NARMADA TRAUMA CENTRE PVT. LTD",
    "Address": "E-3/23",
    "City": "BHOPAL",
    "State": "Madhya Pradesh",
    "Pincode": 462016,
    "Phone": 4040000,
    "no": 6655,
    "TPAs": [
      "1",
      "2",
      "3",
      "5",
      "14",
      "10",
      "8",
      "6",
      "9",
      "4",
      "11",
      "13",
      "12",
      "10"
    ],
    "Latitude": 23.2176951,
    "Longitude": 77.439246
  },
  {
    "HospitalName": "Uro-Care Hosppital",
    "Address": "Sai-Nath Marg, Gadapura, Near Utkasrh Vidhyalaya, ",
    "City": "Vadodara",
    "State": "Gujarat",
    "Pincode": 390021,
    "Phone": 2652353049,
    "no": 6658,
    "TPAs": [
      "1",
      "2",
      "3",
      "5",
      "14",
      "10",
      "8",
      "6",
      "9",
      "4",
      "11",
      "13",
      "12",
      "10"
    ],
    "Latitude": 22.30372,
    "Longitude": 73.15382029999999
  },
  {
    "HospitalName": "G.I HEALTHCARE PRIVATE LIMITED (KAIZEN HOSPITAL) ",
    "Address": "132 FOOT RING ROAD , NEAR HELMATE CIRCLE ,",
    "City": "AHMEDABAD",
    "State": "Gujarat",
    "Pincode": 380052,
    "Phone": 7698844410,
    "no": 6660,
    "TPAs": [
      "1",
      "2",
      "3",
      "5",
      "14",
      "10",
      "8",
      "6",
      "9",
      "4",
      "11",
      "13",
      "12",
      "10"
    ],
    "Latitude": 23.0451559,
    "Longitude": 72.5421677
  },
  {
    "HospitalName": "Navjeevan Maternity Hospital",
    "Address": "First Floor ,Chirmade Complex",
    "City": "Jalgaon",
    "State": "Maharashtra",
    "Pincode": 425001,
    "Phone": "2233308, 2956111",
    "no": 6662,
    "TPAs": [
      "1",
      "2",
      "3",
      "5",
      "14",
      "10",
      "8",
      "6",
      "9",
      "4",
      "11",
      "13",
      "12",
      "10"
    ],
    "Latitude": 21.0036253,
    "Longitude": 75.5680617
  },
  {
    "HospitalName": "KEMPANNA HOSPITAL(A UNIT OF KEMPANNA HEALTH CARE PVT LTD)",
    "Address": "#1 KHB LAYOUT, OLD MADRAS ROAD",
    "City": "BENGALURU",
    "State": "Karnataka",
    "Pincode": 562114,
    "Phone": 29502038,
    "no": 6663,
    "TPAs": [
      "1",
      "2",
      "3",
      "5",
      "14",
      "10",
      "8",
      "6",
      "9",
      "4",
      "11",
      "13",
      "12",
      "10"
    ],
    "Latitude": 13.0692497,
    "Longitude": 77.7808573
  },
  {
    "HospitalName": "ANAAMAYA MEDICAL INSTITUTE 35/361/1 ANNUR ROAD PAYYANUR",
    "Address": "NEAR FIRE STATION,35/361/1 ANNUR ROAD PAYYANUR",
    "City": "Kannur",
    "State": "Kerala",
    "Pincode": 670307,
    "Phone": 215500,
    "no": 6665,
    "TPAs": [
      "1",
      "2",
      "3",
      "5",
      "14",
      "10",
      "8",
      "6",
      "9",
      "4",
      "11",
      "13",
      "12",
      "10"
    ],
    "Latitude": 12.1197382,
    "Longitude": 75.20896239999999
  },
  {
    "HospitalName": "SWASTHYA SUPER SPECIALITY HOSPITAL",
    "Address": "AJANTA COOPERATIVE SOC CNG PUMP ROAD ELLORA PARK CROSSING VADODARA",
    "City": "Vadodara",
    "State": "Gujarat",
    "Pincode": 390023,
    "Phone": 2299700,
    "no": 6666,
    "TPAs": [
      "1",
      "2",
      "3",
      "5",
      "14",
      "10",
      "8",
      "6",
      "9",
      "4",
      "11",
      "13",
      "12",
      "10"
    ],
    "Latitude": 22.3159397,
    "Longitude": 73.15930019999999
  },
  {
    "HospitalName": "PP Mand Maniya Children's Super speciality hopsital and Maternity home",
    "Address": "C1 GANESH COLONY ",
    "City": "Surat",
    "State": "Gujarat",
    "Pincode": 395006,
    "Phone": 9099979976,
    "no": 6673,
    "TPAs": [
      "1",
      "2",
      "3",
      "5",
      "14",
      "10",
      "8",
      "6",
      "9",
      "4",
      "11",
      "13",
      "12",
      "10"
    ],
    "Latitude": 21.1702401,
    "Longitude": 72.83106070000001
  },
  {
    "HospitalName": "SUNAG ORTHOCARE AND MULTISPECIALITY CENTRE",
    "Address": "OPP. MGM COLLEGE ROAD, KUNJIBETTU",
    "City": "Udupi",
    "State": "Karnataka",
    "Pincode": 576102,
    "Phone": 2525259,
    "no": 6675,
    "TPAs": [
      "1",
      "2",
      "3",
      "5",
      "14",
      "10",
      "8",
      "6",
      "9",
      "4",
      "11",
      "13",
      "12",
      "10"
    ],
    "Latitude": 13.3451041,
    "Longitude": 74.7648359
  },
  {
    "HospitalName": "GBL HOSPITAL ",
    "Address": "AH-31,SENIOR HIG SUKHLIYA,NEAR BAPAT SQUARE",
    "City": "Indore",
    "State": "Madhya Pradesh",
    "Pincode": 452010,
    "Phone": 4998588,
    "no": 6677,
    "TPAs": [
      "1",
      "2",
      "3",
      "5",
      "14",
      "10",
      "8",
      "6",
      "9",
      "4",
      "11",
      "13",
      "12",
      "10"
    ],
    "Latitude": 22.7564799,
    "Longitude": 75.8778894
  },
  {
    "HospitalName": "The Signature Hospital (a unit of Park MediCity North Pvt Ltd)",
    "Address": "Sec-37D Dwarka Expressway",
    "City": "Gurgaon",
    "State": "Haryana",
    "Pincode": 122006,
    "Phone": "6034444/9582367888",
    "no": 6678,
    "TPAs": [
      "1",
      "2",
      "3",
      "5",
      "14",
      "10",
      "8",
      "6",
      "9",
      "4",
      "11",
      "13",
      "12",
      "10"
    ],
    "Latitude": 28.4541997,
    "Longitude": 76.97321819999999
  },
  {
    "HospitalName": "SHREE GURUKRUPA MULTISPECIALITY HOSPITAL",
    "Address": "Krishna Chamber, RAJENDRAPARK",
    "City": "Ahmedabad",
    "State": "Gujarat",
    "Pincode": 382415,
    "Phone": 8401044050,
    "no": 6679,
    "TPAs": [
      "1",
      "2",
      "3",
      "5",
      "14",
      "10",
      "8",
      "6",
      "9",
      "4",
      "11",
      "13",
      "12",
      "10"
    ],
    "Latitude": 22.9931,
    "Longitude": 72.66283659999999
  },
  {
    "HospitalName": "D K EYE CARE HOSPITAL",
    "Address": "2470 B , FIRST FLOOR, INDIRA NAGAR, LUCKNOW, 226016",
    "City": "Lucknow",
    "State": "Uttar Pradesh",
    "Pincode": 226016,
    "Phone": 9307012664,
    "no": 6680,
    "TPAs": [
      "1",
      "2",
      "3",
      "5",
      "14",
      "10",
      "8",
      "6",
      "9",
      "4",
      "11",
      "13",
      "12",
      "10"
    ],
    "Latitude": 26.8824827,
    "Longitude": 80.98465929999999
  },
  {
    "HospitalName": "SHARADHA ORTHO SPECIALITY HOSPITAL",
    "Address": "BESIDE DESHPANDE PETROL PUMP, BASAV NAGAR, MUDHOL",
    "City": "Bagalkot",
    "State": "Karnataka",
    "Pincode": 587311,
    "Phone": 280141,
    "no": 6682,
    "TPAs": [
      "1",
      "2",
      "3",
      "5",
      "14",
      "10",
      "8",
      "6",
      "9",
      "4",
      "11",
      "13",
      "12",
      "10"
    ],
    "Latitude": 16.3281431,
    "Longitude": 75.28978409999999
  },
  {
    "HospitalName": "Kiran Care And Cure Hospital",
    "Address": "J.B Nagar, Mistry Complex, Near Jan Kalyan Bank, Ground Floor, Sankalp , Andheri(E)",
    "City": "Mumbai",
    "State": "Maharashtra",
    "Pincode": 400059,
    "Phone": 61562000,
    "no": 6684,
    "TPAs": [
      "1",
      "2",
      "3",
      "5",
      "14",
      "10",
      "8",
      "6",
      "9",
      "4",
      "11",
      "13",
      "12",
      "10"
    ],
    "Latitude": 19.106868,
    "Longitude": 72.865505
  },
  {
    "HospitalName": "SANTOM HOSPITAL PVT.LTD",
    "Address": "D-5 Prashant Vihar, Rohini",
    "City": "NEW DELHI",
    "State": "Delhi",
    "Pincode": 110085,
    "Phone": 27554313,
    "no": 6685,
    "TPAs": [
      "1",
      "2",
      "3",
      "5",
      "14",
      "10",
      "8",
      "6",
      "9",
      "4",
      "11",
      "13",
      "12",
      "10"
    ],
    "Latitude": 28.7140203,
    "Longitude": 77.13846989999999
  },
  {
    "HospitalName": "AGRAWAL ORTHOPAEDIC HOSPITAL AND RESEARCH CENTRE",
    "Address": "JUBILLE ROAD, GORAKHPUR, ",
    "City": "GORAKHPUR",
    "State": "Uttar Pradesh",
    "Pincode": 273408,
    "Phone": 2333102,
    "no": 6687,
    "TPAs": [
      "1",
      "2",
      "3",
      "5",
      "14",
      "10",
      "8",
      "6",
      "9",
      "4",
      "11",
      "13",
      "12",
      "10"
    ],
    "Latitude": 26.7529982,
    "Longitude": 83.36561069999999
  },
  {
    "HospitalName": "Shree Sadguru Accident and Fracture Hospital",
    "Address": "MITALI HEIGHT, 1ST FLOOR, NEAR GURUDHAM HOTEL, & KDMS D WARD,",
    "City": "Thane",
    "State": "Maharashtra",
    "Pincode": 401107,
    "Phone": 8767836640,
    "no": 6692,
    "TPAs": [
      "1",
      "2",
      "3",
      "5",
      "14",
      "10",
      "8",
      "6",
      "9",
      "4",
      "11",
      "13",
      "12",
      "10"
    ],
    "Latitude": 19.2245588,
    "Longitude": 73.13855629999999
  },
  {
    "HospitalName": "Shitala Sahai Institute Of Medical Scienece (Ssims) Multispeciality Hospital",
    "Address": "CANCER HILL",
    "City": "Gwalior",
    "State": "Madhya Pradesh",
    "Pincode": 474001,
    "Phone": 2336619,
    "no": 6693,
    "TPAs": [
      "1",
      "2",
      "3",
      "5",
      "14",
      "10",
      "8",
      "6",
      "9",
      "4",
      "11",
      "13",
      "12",
      "10"
    ],
    "Latitude": 26.1847848,
    "Longitude": 78.1671597
  },
  {
    "HospitalName": "MHAISHALKAR SHINDE HOSPITAL",
    "Address": "CIVIL HOSPITAL CHOWK,DR. AMBEDKAR ROAD SANGLI.",
    "City": "SANGLI",
    "State": "Maharashtra",
    "Pincode": 416416,
    "Phone": 7588239330,
    "no": 6694,
    "TPAs": [
      "1",
      "2",
      "3",
      "5",
      "14",
      "10",
      "8",
      "6",
      "9",
      "4",
      "11",
      "13",
      "12",
      "10"
    ],
    "Latitude": 16.8533917,
    "Longitude": 74.5737616
  },
  {
    "HospitalName": "Health Village  Hospital(A unit Of Odivissa Health Research Pvt.Ltd.)",
    "Address": "Plot No-15/1 Civic Centre,IRC Village,Nayapalli",
    "City": "Bhubaneswar",
    "State": "Odisha",
    "Pincode": 751015,
    "Phone": 6662555,
    "no": 6695,
    "TPAs": [
      "1",
      "2",
      "3",
      "5",
      "14",
      "10",
      "8",
      "6",
      "9",
      "4",
      "11",
      "13",
      "12",
      "10"
    ],
    "Latitude": 20.2947667,
    "Longitude": 85.8166319
  },
  {
    "HospitalName": "KAILASH HOSPITAL DEHRADUN ( UNIT OF KAILASH HEALTHCARE)",
    "Address": "HARIDWAR ROAD, NEAR JOGIWALA CHOWK, DEHRADUN, UTTARANCHAL, 248001",
    "City": "Dehradun",
    "State": "Uttarakhand",
    "Pincode": 248001,
    "Phone": 2663000,
    "no": 6696,
    "TPAs": [
      "1",
      "2",
      "3",
      "5",
      "14",
      "10",
      "8",
      "6",
      "9",
      "4",
      "11",
      "13",
      "12",
      "10"
    ],
    "Latitude": 30.2882818,
    "Longitude": 78.0641818
  },
  {
    "HospitalName": "KRISHNA SPECIALITY HOSPITAL(UNIT OF URO CARE AND KIDNEY STONE CENTRE ) ",
    "Address": "43/1,VETRIVEL NAGAR , ",
    "City": "Coimbatore",
    "State": "Tamil Nadu",
    "Pincode": 641014,
    "Phone": "2626260 ,61 , 64",
    "no": 6699,
    "TPAs": [
      "1",
      "2",
      "3",
      "5",
      "14",
      "10",
      "8",
      "6",
      "9",
      "4",
      "11",
      "13",
      "12",
      "10"
    ],
    "Latitude": 11.0454994,
    "Longitude": 77.04584849999999
  },
  {
    "HospitalName": "Pasaydan Multispeciality Charitable Hospital",
    "Address": "Pasaydan Bhavan , R B Kadam marg , Next to Jivdaya Jain Mandir",
    "City": "Mumbai",
    "State": "Maharashtra",
    "Pincode": 400084,
    "Phone": "25101018 , 25101818",
    "no": 6700,
    "TPAs": [
      "1",
      "2",
      "3",
      "5",
      "14",
      "10",
      "8",
      "6",
      "9",
      "4",
      "11",
      "13",
      "12",
      "10"
    ],
    "Latitude": 19.0888048,
    "Longitude": 72.9051284
  },
  {
    "HospitalName": "Ajay Bhandari Associates LLP (Disha Multispeciality Hospital)",
    "Address": "Plot No 660 & 661, Bhandari Hospital Road, 4th bridge, Napier Town, Jabalpur, Madhya Pradesh",
    "City": "Jabalpur",
    "State": "Madhya Pradesh",
    "Pincode": 482001,
    "Phone": 7614700088,
    "no": 6701,
    "TPAs": [
      "1",
      "2",
      "3",
      "5",
      "14",
      "10",
      "8",
      "6",
      "9",
      "4",
      "11",
      "13",
      "12",
      "10"
    ],
    "Latitude": 23.1544412,
    "Longitude": 79.93686009999999
  },
  {
    "HospitalName": "All Is Well Multi Speciality Hospital - Burhanpur - MP - ",
    "Address": "Near Macro Vision Academy,Mohammadpura, Burhanpur, Madhya Pradesh-",
    "City": "Burhanpur",
    "State": "Madhya Pradesh",
    "Pincode": 450331,
    "Phone": 7089066888,
    "no": 6702,
    "TPAs": [
      "1",
      "2",
      "3",
      "5",
      "14",
      "10",
      "8",
      "6",
      "9",
      "4",
      "11",
      "13",
      "12",
      "10"
    ],
    "Latitude": 21.2862222,
    "Longitude": 76.2022247
  },
  {
    "HospitalName": "RENI KIDNEY CARE",
    "Address": "6/3, THIRUGNANASAMBANDHAR ST,(Near Mariammal School), Mahalingapuram, Pollachi",
    "City": "Coimbatore",
    "State": "Tamil Nadu",
    "Pincode": 642002,
    "Phone": 9047777876,
    "no": 6703,
    "TPAs": [
      "1",
      "2",
      "3",
      "5",
      "14",
      "10",
      "8",
      "6",
      "9",
      "4",
      "11",
      "13",
      "12",
      "10"
    ],
    "Latitude": 10.6657229,
    "Longitude": 77.0090367
  },
  {
    "HospitalName": "Phoenix Ortho And Speciality Clinic",
    "Address": "Shop no 3, New Geetanjali  opp. Pramila hospital, Sudama Nagar, Budhaji Nagar, Thane, Maharashtra-",
    "City": "Thane",
    "State": "Maharashtra",
    "Pincode": 400605,
    "Phone": 9324237388,
    "no": 6704,
    "TPAs": [
      "1",
      "2",
      "3",
      "5",
      "14",
      "10",
      "8",
      "6",
      "9",
      "4",
      "11",
      "13",
      "12",
      "10"
    ],
    "Latitude": 19.1965892,
    "Longitude": 72.9906932
  },
  {
    "HospitalName": "Zikrullah Khans Habib Hospital Pvt. Ltd.",
    "Address": "Plot 345,345/1, 238, A H Wadia Marg ,old Agra Road Opp. Shalimar Hotel Off L.B.S, Kurla, Mumbai, Maharashtra-400070",
    "City": "Mumbai",
    "State": "Maharashtra",
    "Pincode": 400070,
    "Phone": "25081000/01/02/03",
    "no": 6706,
    "TPAs": [
      "1",
      "2",
      "3",
      "5",
      "14",
      "10",
      "8",
      "6",
      "9",
      "4",
      "11",
      "13",
      "12",
      "10"
    ],
    "Latitude": 19.076881,
    "Longitude": 72.8801996
  },
  {
    "HospitalName": "NELSON MEMORIAL CHILDRENS HOSPITALPVT LTD NASHIK",
    "Address": "NEAR MAHAMARG BUS STAND,NEXT TO TUPSAKHARE LAWNS,HOLKAR MARG",
    "City": "NASHIK",
    "State": "Maharashtra",
    "Pincode": 422002,
    "Phone": 2580647,
    "no": 6707,
    "TPAs": [
      "1",
      "2",
      "3",
      "5",
      "14",
      "10",
      "8",
      "6",
      "9",
      "4",
      "11",
      "13",
      "12",
      "10"
    ],
    "Latitude": 19.9891568,
    "Longitude": 73.7783066
  },
  {
    "HospitalName": "Laxmi Netralaya Pvt Ltd",
    "Address": "Mahabirtola, Ara",
    "City": "Bhojpur",
    "State": "Bihar",
    "Pincode": 802301,
    "Phone": 222274,
    "no": 6708,
    "TPAs": [
      "1",
      "2",
      "3",
      "5",
      "14",
      "10",
      "8",
      "6",
      "9",
      "4",
      "11",
      "13",
      "12",
      "10"
    ],
    "Latitude": 25.5596256,
    "Longitude": 84.66806729999999
  },
  {
    "HospitalName": "New B K Hospital",
    "Address": "Purani Gandak Pul Road Jauhari Bazar,Hajipur",
    "City": "Vaishali",
    "State": "Bihar",
    "Pincode": 844101,
    "Phone": 9097333335,
    "no": 6710,
    "TPAs": [
      "1",
      "2",
      "3",
      "5",
      "14",
      "10",
      "8",
      "6",
      "9",
      "4",
      "11",
      "13",
      "12",
      "10"
    ],
    "Latitude": 25.6914652,
    "Longitude": 85.2065464
  },
  {
    "HospitalName": "Krishna Eye Institute",
    "Address": "Soman Sun Citi commercial complex, Birla college Road",
    "City": "Mumbai ",
    "State": "Maharashtra",
    "Pincode": 421301,
    "Phone": "2313399 / 9833689191",
    "no": 6711,
    "TPAs": [
      "1",
      "2",
      "3",
      "5",
      "14",
      "10",
      "8",
      "6",
      "9",
      "4",
      "11",
      "13",
      "12",
      "10"
    ],
    "Latitude": 19.0443003,
    "Longitude": 72.8649652
  },
  {
    "HospitalName": "CHENNAI ORTHOPAEDIC \nCENTER AND SPECIALITY HOSPITAL",
    "Address": "Plot No.12,Ramakrishna Nagar Extn.,\nValasaravakkam,Chennai - 87.",
    "City": "Chennai",
    "State": "Tamil Nadu",
    "Pincode": 600087,
    "Phone": "42860001    24861660",
    "no": 6712,
    "TPAs": [
      "1",
      "2",
      "3",
      "5",
      "14",
      "10",
      "8",
      "6",
      "9",
      "4",
      "11",
      "13",
      "12",
      "10"
    ],
    "Latitude": 13.0472133,
    "Longitude": 80.18150829999999
  },
  {
    "HospitalName": "Jalna Hospital - A unit of Shree Vitthal Multispeciality Hospital And Research Center LLP Jalna",
    "Address": "Satkar nagar, Ambad square, Jalna (MH) -431203",
    "City": "JALNA",
    "State": "Maharashtra",
    "Pincode": 431203,
    "Phone": "02482-223551/222551",
    "no": 6714,
    "TPAs": [
      "1",
      "2",
      "3",
      "5",
      "14",
      "10",
      "8",
      "6",
      "9",
      "4",
      "11",
      "13",
      "12",
      "10"
    ],
    "Latitude": 19.8220678,
    "Longitude": 75.8827372
  },
  {
    "HospitalName": "MANWATH MULTI-SPECIALITY HOSPITAL",
    "Address": "5-5-90,91,92,94 MAIN ROAD",
    "City": "Parbhani",
    "State": "Maharashtra",
    "Pincode": 431505,
    "Phone": 240422,
    "no": 6715,
    "TPAs": [
      "1",
      "2",
      "3",
      "5",
      "14",
      "10",
      "8",
      "6",
      "9",
      "4",
      "11",
      "13",
      "12",
      "10"
    ],
    "Latitude": 19.3026531,
    "Longitude": 76.4955336
  },
  {
    "HospitalName": "Mahadev Hospital",
    "Address": "Mahima Complex,Vijay Vihar Road",
    "City": "Bilaspur",
    "State": "Chattisgarh",
    "Pincode": 495001,
    "Phone": "406006/415285",
    "no": 6716,
    "TPAs": [
      "1",
      "2",
      "3",
      "5",
      "14",
      "10",
      "8",
      "6",
      "9",
      "4",
      "11",
      "13",
      "12",
      "10"
    ],
    "Latitude": 22.0669348,
    "Longitude": 82.149309
  },
  {
    "HospitalName": "Vivanta Multi Speciality Hospital",
    "Address": " JP Residency, Chincholi Bunder Road, Malad, Mumbai, Maharashtra-400064",
    "City": "Mumbai",
    "State": "Maharashtra",
    "Pincode": 400064,
    "Phone": 28737071,
    "no": 6718,
    "TPAs": [
      "1",
      "2",
      "3",
      "5",
      "14",
      "10",
      "8",
      "6",
      "9",
      "4",
      "11",
      "13",
      "12",
      "10"
    ],
    "Latitude": 19.1789531,
    "Longitude": 72.8427567
  },
  {
    "HospitalName": "Excelcare Hospitals(A  Unit Of Asclepius Hospitals  & Health Care Pvt. Ltd.)",
    "Address": "NH-37 Paschim Boragaon, Near Ganesh Mandir",
    "City": "Guwahati",
    "State": "Assam",
    "Pincode": 781033,
    "Phone": 7140101,
    "no": 6719,
    "TPAs": [
      "1",
      "2",
      "3",
      "5",
      "14",
      "10",
      "8",
      "6",
      "9",
      "4",
      "11",
      "13",
      "12",
      "10"
    ],
    "Latitude": 26.1395896,
    "Longitude": 91.6374002
  },
  {
    "HospitalName": "SHALBY HOSPITALS MOHALI ( UNIT OF SHALBY LIMITED)",
    "Address": "near PCA Stadium, Phase 9, Sector 63, Sahibzada Ajit Singh Nagar, Chandigarh 160062",
    "City": "MOHALI",
    "State": "Punjab",
    "Pincode": 160062,
    "Phone": 4907100,
    "no": 6720,
    "TPAs": [
      "1",
      "2",
      "3",
      "5",
      "14",
      "10",
      "8",
      "6",
      "9",
      "4",
      "11",
      "13",
      "12",
      "10"
    ],
    "Latitude": 30.6922922,
    "Longitude": 76.7333434
  },
  {
    "HospitalName": "Sai Spandan Hospital ",
    "Address": "Pune Solapur Road Hadapsar ,Shivam Complx Near Sadhana Co Op Bank Pune -411028 ",
    "City": "Pune ",
    "State": "Maharashtra",
    "Pincode": 411028,
    "Phone": 7370558648,
    "no": 6721,
    "TPAs": [
      "1",
      "2",
      "3",
      "5",
      "14",
      "10",
      "8",
      "6",
      "9",
      "4",
      "11",
      "13",
      "12",
      "10"
    ],
    "Latitude": 18.500658,
    "Longitude": 73.943261
  },
  {
    "HospitalName": "MEDANTA S N SUPER SPECIALITY HOSPITAL PVT LTD",
    "Address": "Suratgarh Hanumangarh Bypass, Ridhi Sidhi Enclave, Sri Ganganagar, Rajasthan 335001",
    "City": "Sri Ganganagar",
    "State": "Rajasthan",
    "Pincode": 335001,
    "Phone": 2970360,
    "no": 6722,
    "TPAs": [
      "1",
      "2",
      "3",
      "5",
      "14",
      "10",
      "8",
      "6",
      "9",
      "4",
      "11",
      "13",
      "12",
      "10"
    ],
    "Latitude": 29.8873573,
    "Longitude": 73.9061796
  },
  {
    "HospitalName": "DR. KUMARANS MULTI SPECIALITY HOSPITAL",
    "Address": "NO.1, 2ND CROSS STREET, ELLAIPILLAICHAVADY",
    "City": "Pondicherry",
    "State": "Pondicherry",
    "Pincode": 605005,
    "Phone": "2205088,  2205089",
    "no": 6723,
    "TPAs": [
      "1",
      "2",
      "3",
      "5",
      "14",
      "10",
      "8",
      "6",
      "9",
      "4",
      "11",
      "13",
      "12",
      "10"
    ],
    "Latitude": 11.9323121,
    "Longitude": 79.80579449999999
  },
  {
    "HospitalName": "Techno India DAMA Healthcare & Medical Centre",
    "Address": "LB- 10,Salt Lake City, Sector-III, Near Chingrighata Crossing",
    "City": "Kolkata",
    "State": "West Bengal",
    "Pincode": 700106,
    "Phone": "61234567/6292191312",
    "no": 6724,
    "TPAs": [
      "1",
      "2",
      "3",
      "5",
      "14",
      "10",
      "8",
      "6",
      "9",
      "4",
      "11",
      "13",
      "12",
      "10"
    ],
    "Latitude": 22.5592744,
    "Longitude": 88.4108656
  },
  {
    "HospitalName": "Krishna Life Care Hospital",
    "Address": "Renuka Mata Mandir road,",
    "City": "Burhanpur",
    "State": "Madhya Pradesh",
    "Pincode": 450331,
    "Phone": 0,
    "no": 6725,
    "TPAs": [
      "1",
      "2",
      "3",
      "5",
      "14",
      "10",
      "8",
      "6",
      "9",
      "4",
      "11",
      "13",
      "12",
      "10"
    ],
    "Latitude": 21.2946895,
    "Longitude": 76.2211585
  },
  {
    "HospitalName": "Radiant Plus Hospital ( Bhabhanagar)",
    "Address": "Shreyas Plaza, Navshaktichouk, Bhabhanagar, Nashik-422011",
    "City": "Nashik",
    "State": "Maharashtra",
    "Pincode": 422011,
    "Phone": 2505236,
    "no": 6726,
    "TPAs": [
      "1",
      "2",
      "3",
      "5",
      "14",
      "10",
      "8",
      "6",
      "9",
      "4",
      "11",
      "13",
      "12",
      "10"
    ],
    "Latitude": 19.9873286,
    "Longitude": 73.7895894
  },
  {
    "HospitalName": "MARUTI MULTISPECIALITY HOSPITAL AND CRITICAL CARE",
    "Address": "A-307 SWAMINARAYAN SOC. VIBHAG-2, BOMBAY MARKET TO PUNA GAM ROAD, SURAT",
    "City": "SURAT",
    "State": "Gujarat",
    "Pincode": 395010,
    "Phone": 9409487000,
    "no": 6727,
    "TPAs": [
      "1",
      "2",
      "3",
      "5",
      "14",
      "10",
      "8",
      "6",
      "9",
      "4",
      "11",
      "13",
      "12",
      "10"
    ],
    "Latitude": 21.2015636,
    "Longitude": 72.8718598
  },
  {
    "HospitalName": "Vaishnavi Multispeciality Hospital",
    "Address": "Vaishnavi Multispeciality Hospital, 1 st Floor,Audumber Heights,Near Shabri Hotel,Dattawadi,Badlapur East, Badlapur, Maharashtra-421503",
    "City": "Badlapur",
    "State": "Maharashtra",
    "Pincode": 421503,
    "Phone": 7507072217,
    "no": 6728,
    "TPAs": [
      "1",
      "2",
      "3",
      "5",
      "14",
      "10",
      "8",
      "6",
      "9",
      "4",
      "11",
      "13",
      "12",
      "10"
    ],
    "Latitude": 19.1576298,
    "Longitude": 73.23572
  },
  {
    "HospitalName": "Mohak Hitechspeciality Hospital",
    "Address": "SAIMS CAMPUS,INDORE-UJJAIN State HIGHWAY,MR-10 CROSSING",
    "City": "Indore",
    "State": "Madhya Pradesh",
    "Pincode": 452001,
    "Phone": 731423170,
    "no": 6730,
    "TPAs": [
      "1",
      "2",
      "3",
      "5",
      "14",
      "10",
      "8",
      "6",
      "9",
      "4",
      "11",
      "13",
      "12",
      "10"
    ],
    "Latitude": 22.79867,
    "Longitude": 75.8449373
  },
  {
    "HospitalName": "Anand Hospital( Pediatric Unit)",
    "Address": "1/568-B, Por Mohallo, ",
    "City": "Surat",
    "State": "Gujarat",
    "Pincode": 395001,
    "Phone": 2474268,
    "no": 6731,
    "TPAs": [
      "1",
      "2",
      "3",
      "5",
      "14",
      "10",
      "8",
      "6",
      "9",
      "4",
      "11",
      "13",
      "12",
      "10"
    ],
    "Latitude": 21.1901159,
    "Longitude": 72.8139599
  },
  {
    "HospitalName": "JYOTI MULTISPECIALTY HOSPITAL",
    "Address": "2ND FLOOR, RUDRA BUSINESS PARK",
    "City": "AHMEDABAD",
    "State": "Gujarat",
    "Pincode": 382418,
    "Phone": 9998146643,
    "no": 6732,
    "TPAs": [
      "1",
      "2",
      "3",
      "5",
      "14",
      "10",
      "8",
      "6",
      "9",
      "4",
      "11",
      "13",
      "12",
      "10"
    ],
    "Latitude": 23.0023365,
    "Longitude": 72.65245340000001
  },
  {
    "HospitalName": "Neema Hospital",
    "Address": "715-16, Vijay Syndicate Annapurna Road, Indore, Madhya Pradesh",
    "City": "Indore",
    "State": "Madhya Pradesh",
    "Pincode": 452009,
    "Phone": "07312799882/883/884",
    "no": 6735,
    "TPAs": [
      "1",
      "2",
      "3",
      "5",
      "14",
      "10",
      "8",
      "6",
      "9",
      "4",
      "11",
      "13",
      "12",
      "10"
    ],
    "Latitude": 22.6953356,
    "Longitude": 75.8388531
  },
  {
    "HospitalName": "Criti Care Multispeciality Hospital And Research Centre",
    "Address": " CST 516 Near Telli Galli masjid ",
    "City": "Mumbai",
    "State": "Maharashtra",
    "Pincode": 400069,
    "Phone": 26844000,
    "no": 6736,
    "TPAs": [
      "1",
      "2",
      "3",
      "5",
      "14",
      "10",
      "8",
      "6",
      "9",
      "4",
      "11",
      "13",
      "12",
      "10"
    ],
    "Latitude": 19.1156416,
    "Longitude": 72.8353782
  },
  {
    "HospitalName": "BACHPAN CHILD HOSPITAL",
    "Address": "OPP POLICE LINES, SHEIKHPURA MOHALLA, SIKAR",
    "City": "Sikar",
    "State": "Rajasthan",
    "Pincode": 332001,
    "Phone": 9024065867,
    "no": 6737,
    "TPAs": [
      "1",
      "2",
      "3",
      "5",
      "14",
      "10",
      "8",
      "6",
      "9",
      "4",
      "11",
      "13",
      "12",
      "10"
    ],
    "Latitude": 27.6075797,
    "Longitude": 75.1538084
  },
  {
    "HospitalName": "Shree Mahavir Jain Hospital And Shri Pratap J Ashar Cardiac Centre",
    "Address": "Louis Wadi Circle,",
    "City": "Thane",
    "State": "Maharashtra",
    "Pincode": 400602,
    "Phone": " 2081 5000 / 6000",
    "no": 6738,
    "TPAs": [
      "1",
      "2",
      "3",
      "5",
      "14",
      "10",
      "8",
      "6",
      "9",
      "4",
      "11",
      "13",
      "12",
      "10"
    ],
    "Latitude": 19.194502,
    "Longitude": 72.9595865
  },
  {
    "HospitalName": "Medicover Hospitals (a unit of sahrudaya healthcare pvt. ltd.)",
    "Address": "Near Chistiya Police Chowki,",
    "City": "Aurangabad",
    "State": "Maharashtra",
    "Pincode": 431003,
    "Phone": 6661111,
    "no": 6739,
    "TPAs": [
      "1",
      "2",
      "3",
      "5",
      "14",
      "10",
      "8",
      "6",
      "9",
      "4",
      "11",
      "13",
      "12",
      "10"
    ],
    "Latitude": 19.8791955,
    "Longitude": 75.3601307
  },
  {
    "HospitalName": "OMKAR MULTISPECIALITY HOSPITAL",
    "Address": "D2, 1565, CIVIL HOSPITAL ROAD, JHAJJAR, HARYANA, 124103",
    "City": "JHAJJAR",
    "State": "HARYANA",
    "Pincode": 124103,
    "Phone": 741966100,
    "no": 6740,
    "TPAs": [
      "1",
      "2",
      "3",
      "5",
      "14",
      "10",
      "8",
      "6",
      "9",
      "4",
      "11",
      "13",
      "12",
      "10"
    ],
    "Latitude": 28.6056182,
    "Longitude": 76.64533589999999
  },
  {
    "HospitalName": "Bhoomika Eye Hospital- Jajpur Road",
    "Address": "Plot No-1510,Laxmi Vihar,Nahaka Chhaka, Jajpur Road",
    "City": "Jajpur",
    "State": "Odisha",
    "Pincode": 755019,
    "Phone": 9875337194,
    "no": 6743,
    "TPAs": [
      "1",
      "2",
      "3",
      "5",
      "14",
      "10",
      "8",
      "6",
      "9",
      "4",
      "11",
      "13",
      "12",
      "10"
    ],
    "Latitude": 20.9495627,
    "Longitude": 86.13709399999999
  },
  {
    "HospitalName": "Medella Cancer Cure Centre",
    "Address": "87F,B.T.Road,Kamarhati,Agarpara",
    "City": "Kolkata",
    "State": "West Bengal",
    "Pincode": 700058,
    "Phone": "66888999/921",
    "no": 6746,
    "TPAs": [
      "1",
      "2",
      "3",
      "5",
      "14",
      "10",
      "8",
      "6",
      "9",
      "4",
      "11",
      "13",
      "12",
      "10"
    ],
    "Latitude": 22.6824414,
    "Longitude": 88.37540849999999
  },
  {
    "HospitalName": "Himalaya Hospital(A Unit of Mediserv Hospital & Research Center Pvt. Ltd.)\n",
    "Address": "70 Feet ,I.O.C Main Road",
    "City": "Patna",
    "State": "Bihar",
    "Pincode": 800002,
    "Phone": "18002578088/7643990185",
    "no": 6747,
    "TPAs": [
      "1",
      "2",
      "3",
      "5",
      "14",
      "10",
      "8",
      "6",
      "9",
      "4",
      "11",
      "13",
      "12",
      "10"
    ],
    "Latitude": 25.580897,
    "Longitude": 85.1172967
  },
  {
    "HospitalName": "Shri Bharat Hospital",
    "Address": "118/1 Khatipura Main Road Shyam Nagar Main Indore, Indore, Madhya Pradesh-452001",
    "City": "Indore",
    "State": "Madhya Pradesh",
    "Pincode": 452001,
    "Phone": "731 - 4069721",
    "no": 6748,
    "TPAs": [
      "1",
      "2",
      "3",
      "5",
      "14",
      "10",
      "8",
      "6",
      "9",
      "4",
      "11",
      "13",
      "12",
      "10"
    ],
    "Latitude": 22.7549582,
    "Longitude": 75.86762089999999
  },
  {
    "HospitalName": "DHARMDEEP HOSPITAL",
    "Address": "SHIV ASTHA SHOPPING CENTER, NR RANGOLI CHOWKDI, KATHOR ROAD VELANJA VILLAGE, TA: KAMREJ. SURAT",
    "City": "SURAT",
    "State": "Gujarat",
    "Pincode": 394150,
    "Phone": 9824150007,
    "no": 6753,
    "TPAs": [
      "1",
      "2",
      "3",
      "5",
      "14",
      "10",
      "8",
      "6",
      "9",
      "4",
      "11",
      "13",
      "12",
      "10"
    ],
    "Latitude": 21.301644,
    "Longitude": 72.91826259999999
  },
  {
    "HospitalName": "NEOKIDS HOSPITAL ",
    "Address": "19, AG TOWER, SUBHASH NAGAR, PAL ROAD, JODHPUR, 342008",
    "City": "JODHPUR",
    "State": "Rajasthan",
    "Pincode": 342008,
    "Phone": 2944032,
    "no": 6754,
    "TPAs": [
      "1",
      "2",
      "3",
      "5",
      "14",
      "10",
      "8",
      "6",
      "9",
      "4",
      "11",
      "13",
      "12",
      "10"
    ],
    "Latitude": 26.2573538,
    "Longitude": 72.9851303
  },
  {
    "HospitalName": "Meenakshi Memorial Hospital ",
    "Address": "164,P.A.C.R Salai Rajapalayam",
    "City": "Rajapalayam",
    "State": "Tamil Nadu",
    "Pincode": 626117,
    "Phone": 9150534954,
    "no": 6755,
    "TPAs": [
      "1",
      "2",
      "3",
      "5",
      "14",
      "10",
      "8",
      "6",
      "9",
      "4",
      "11",
      "13",
      "12",
      "10"
    ],
    "Latitude": 9.4415552,
    "Longitude": 77.5611474
  },
  {
    "HospitalName": "Luke Eye Hospital  ",
    "Address": "Opposite Yatri Nivas Complex,A.M. Road",
    "City": "Perumbavoor",
    "State": "Kerala",
    "Pincode": 683542,
    "Phone": "7034081000, 7034082000",
    "no": 6757,
    "TPAs": [
      "1",
      "2",
      "3",
      "5",
      "14",
      "10",
      "8",
      "6",
      "9",
      "4",
      "11",
      "13",
      "12",
      "10"
    ],
    "Latitude": 10.1146711,
    "Longitude": 76.47404209999999
  }
]