[
  {
    "HospitalName": "Asg Hospital, Kanpur",
    "Address": "Plot no 302, Block- HNS, Harinath Scheme, Forst Shastri Nagar",
    "City": "Kanpur",
    "State": "Uttar Pradesh",
    "Pincode": 208012,
    "Phone": "3222722/3222822",
    "no": 5367,
    "TPAs": [
      "1",
      "2",
      "3",
      "5",
      "14",
      "10",
      "8",
      "6",
      "9",
      "4",
      "11",
      "13",
      "12",
      "10"
    ],
    "Latitude": 26.4785007,
    "Longitude": 80.2968325
  },
  {
    "HospitalName": "Chandni Hospital Pvt Ltd",
    "Address": "9/60, Arya Nagar ",
    "City": "Kanpur",
    "State": "Uttar Pradesh",
    "Pincode": 208002,
    "Phone": "0512 - 22183078 / 2551185 / 2551885",
    "no": 5371,
    "TPAs": [
      "1",
      "2",
      "3",
      "5",
      "14",
      "10",
      "8",
      "6",
      "9",
      "4",
      "11",
      "13",
      "12",
      "10"
    ],
    "Latitude": 26.4796851,
    "Longitude": 80.32249449999999
  },
  {
    "HospitalName": "Deys Hospital",
    "Address": "491, Kazi Khera , Lal Bangla",
    "City": "Kanpur",
    "State": "Uttar Pradesh",
    "Pincode": 208007,
    "Phone": "0512 - 2401553",
    "no": 5372,
    "TPAs": [
      "1",
      "2",
      "3",
      "5",
      "14",
      "10",
      "8",
      "6",
      "9",
      "4",
      "11",
      "13",
      "12",
      "10"
    ],
    "Latitude": 26.419339,
    "Longitude": 80.38978890000001
  },
  {
    "HospitalName": "Eye Q Super Specialty Eye Hospitals -Kanpur",
    "Address": "113/57, Swaroop Nagar, Next To Allahabad Bank, Opp Motijheel",
    "City": "Kanpur",
    "State": "Uttar Pradesh",
    "Pincode": 226020,
    "Phone": "6050109, 3083291/92",
    "no": 5374,
    "TPAs": [
      "1",
      "2",
      "3",
      "5",
      "14",
      "10",
      "8",
      "6",
      "9",
      "4",
      "11",
      "13",
      "12",
      "10"
    ],
    "Latitude": 26.4792878,
    "Longitude": 80.31411279999999
  },
  {
    "HospitalName": "Globus Hospital For Joint Replacement",
    "Address": "117/N/33, A-1 Market, Kakadeo, Kanpur, 208025",
    "City": "Kanpur",
    "State": "Uttar Pradesh",
    "Pincode": 208025,
    "Phone": "512-2501444/2501555",
    "no": 5376,
    "TPAs": [
      "1",
      "2",
      "3",
      "5",
      "14",
      "10",
      "8",
      "6",
      "9",
      "4",
      "11",
      "13",
      "12",
      "10"
    ],
    "Latitude": 26.4758289,
    "Longitude": 80.29453
  },
  {
    "HospitalName": "Laxmi Devi Kishan Chand Memorial Hospital Pvt Ltd",
    "Address": "150 & 157, Ratanlal Nagar",
    "City": "Kanpur",
    "State": "Uttar Pradesh",
    "Pincode": 208022,
    "Phone": "512-2280370/2280478",
    "no": 5380,
    "TPAs": [
      "1",
      "2",
      "3",
      "5",
      "14",
      "10",
      "8",
      "6",
      "9",
      "4",
      "11",
      "13",
      "12",
      "10"
    ],
    "Latitude": 26.4433709,
    "Longitude": 80.2864862
  },
  {
    "HospitalName": "Mahaveer Hospital And Trauma Centre",
    "Address": "76 E, Station Road, Panki , Kanpur",
    "City": "Kanpur",
    "State": "Uttar Pradesh",
    "Pincode": 208020,
    "Phone": 8896431602,
    "no": 5382,
    "TPAs": [
      "1",
      "2",
      "3",
      "5",
      "14",
      "10",
      "8",
      "6",
      "9",
      "4",
      "11",
      "13",
      "12",
      "10"
    ],
    "Latitude": 26.4625151,
    "Longitude": 80.24375859999999
  },
  {
    "HospitalName": "P P M Medical Centre Pvt Ltd",
    "Address": "127/194, W-1 Saket Nagar , Kanpur",
    "City": "Kanpur",
    "State": "Uttar Pradesh",
    "Pincode": 208014,
    "Phone": "0512 - 2601400 / 2601444",
    "no": 5385,
    "TPAs": [
      "1",
      "2",
      "3",
      "5",
      "14",
      "10",
      "8",
      "6",
      "9",
      "4",
      "11",
      "13",
      "12",
      "10"
    ],
    "Latitude": 26.4354625,
    "Longitude": 80.3171603
  },
  {
    "HospitalName": "R K Devi Memorial Hospital",
    "Address": "113/157 Swarup Nagar",
    "City": "Kanpur",
    "State": "Uttar Pradesh",
    "Pincode": 208002,
    "Phone": "512-2534984/2534979",
    "no": 5387,
    "TPAs": [
      "1",
      "2",
      "3",
      "5",
      "14",
      "10",
      "8",
      "6",
      "9",
      "4",
      "11",
      "13",
      "12",
      "10"
    ],
    "Latitude": 26.4819696,
    "Longitude": 80.31733369999999
  },
  {
    "HospitalName": "Royal Cancer Institute And Research Centre",
    "Address": "113/103a, Swaroop Nagar",
    "City": "Kanpur",
    "State": "Uttar Pradesh",
    "Pincode": 208002,
    "Phone": "512-3048010/9415075160/840033105",
    "no": 5389,
    "TPAs": [
      "1",
      "2",
      "3",
      "5",
      "14",
      "10",
      "8",
      "6",
      "9",
      "4",
      "11",
      "13",
      "12",
      "10"
    ],
    "Latitude": 26.479373,
    "Longitude": 80.31598749999999
  },
  {
    "HospitalName": "Shree Ram Nursing Home Private Limited ",
    "Address": "128/817, K Block , Kidwai Nagar",
    "City": "Kanpur",
    "State": "Uttar Pradesh",
    "Pincode": 208011,
    "Phone": "0512 - 2611924 / 2602303",
    "no": 5392,
    "TPAs": [
      "1",
      "2",
      "3",
      "5",
      "14",
      "10",
      "8",
      "6",
      "9",
      "4",
      "11",
      "13",
      "12",
      "10"
    ],
    "Latitude": 26.4201802,
    "Longitude": 80.3290171
  },
  {
    "HospitalName": "The Panacea Multi Super Specialty Hospital, Kanpur",
    "Address": "117/473, Block- L,Kakadev",
    "City": "Kanpur",
    "State": "Uttar Pradesh",
    "Pincode": 208005,
    "Phone": 2501355,
    "no": 5394,
    "TPAs": [
      "1",
      "2",
      "3",
      "5",
      "14",
      "10",
      "8",
      "6",
      "9",
      "4",
      "11",
      "13",
      "12",
      "10"
    ],
    "Latitude": 26.4739929,
    "Longitude": 80.2933181
  },
  {
    "HospitalName": "Rama Superspeciality Hospital",
    "Address": "A-1/8 , Lakhnpur, Kanpur",
    "City": "Lakanpur",
    "State": "Uttar Pradesh",
    "Pincode": 208024,
    "Phone": "0512 - 2584223 / 25 / 26",
    "no": 5397,
    "TPAs": [
      "1",
      "2",
      "3",
      "5",
      "14",
      "10",
      "8",
      "6",
      "9",
      "4",
      "11",
      "13",
      "12",
      "10"
    ],
    "Latitude": 26.4977297,
    "Longitude": 80.277952
  },
  {
    "HospitalName": "Aastha Maternity  And Laparoscopy Centre",
    "Address": "A-1654,1655,SECTOR-I,LDA COLONY,ON ROAD TO VISHAL MEGA MART,NEAR AASHIANA CHAURAHA",
    "City": "Lucknow",
    "State": "Uttar Pradesh",
    "Pincode": 226001,
    "Phone": 4070369,
    "no": 5398,
    "TPAs": [
      "1",
      "2",
      "3",
      "5",
      "14",
      "10",
      "8",
      "6",
      "9",
      "4",
      "11",
      "13",
      "12",
      "10"
    ],
    "Latitude": 26.797451,
    "Longitude": 80.9131852
  },
  {
    "HospitalName": "Abhinav Drishti Eye Hospital",
    "Address": "B-719, Sec C , Mahanagar",
    "City": "Lucknow",
    "State": "Uttar Pradesh",
    "Pincode": 226006,
    "Phone": "0522 - 2335122 / 2335144",
    "no": 5399,
    "TPAs": [
      "1",
      "2",
      "3",
      "5",
      "14",
      "10",
      "8",
      "6",
      "9",
      "4",
      "11",
      "13",
      "12",
      "10"
    ],
    "Latitude": 26.8782709,
    "Longitude": 80.9541891
  },
  {
    "HospitalName": "Agrawal Eye Foundation",
    "Address": "21/31, 3 C, Tilak Marg, Opp Rana Pratap Marg",
    "City": "Lucknow",
    "State": "Uttar Pradesh",
    "Pincode": 226002,
    "Phone": "0522 - 2202253 / 2202254",
    "no": 5400,
    "TPAs": [
      "1",
      "2",
      "3",
      "5",
      "14",
      "10",
      "8",
      "6",
      "9",
      "4",
      "11",
      "13",
      "12",
      "10"
    ],
    "Latitude": 26.8586407,
    "Longitude": 80.9427885
  },
  {
    "HospitalName": "Apollo Medics Super Speciality Hospitals",
    "Address": "Plot no. KBC, 31, Kanpur - Lucknow Rd, Sector B, LDA Colony, Lucknow, Uttar Pradesh 226012",
    "City": "Lucknow",
    "State": "Uttar Pradesh",
    "Pincode": 226012,
    "Phone": 6788888,
    "no": 5402,
    "TPAs": [
      "1",
      "2",
      "3",
      "5",
      "14",
      "10",
      "8",
      "6",
      "9",
      "4",
      "11",
      "13",
      "12",
      "10"
    ],
    "Latitude": 26.7981787,
    "Longitude": 80.9015457
  },
  {
    "HospitalName": "Brijraj Hospital",
    "Address": "Tehseenganj Crossing, Hardoi Road, Lucknow",
    "City": "Lucknow",
    "State": "Uttar Pradesh",
    "Pincode": 201010,
    "Phone": "0522 - 2257746",
    "no": 5404,
    "TPAs": [
      "1",
      "2",
      "3",
      "5",
      "14",
      "10",
      "8",
      "6",
      "9",
      "4",
      "11",
      "13",
      "12",
      "10"
    ],
    "Latitude": 26.871123,
    "Longitude": 80.899613
  },
  {
    "HospitalName": "Chandan Hospital Limited",
    "Address": "FAIZABAD ROAD, NEAR CHINHAT FLYOVER, VIJAYANTKHAND, GOMTI NAGAR,",
    "City": "Lucknow",
    "State": "Uttar Pradesh",
    "Pincode": 226010,
    "Phone": 6666666,
    "no": 5405,
    "TPAs": [
      "1",
      "2",
      "3",
      "5",
      "14",
      "10",
      "8",
      "6",
      "9",
      "4",
      "11",
      "13",
      "12",
      "10"
    ],
    "Latitude": 26.8738642,
    "Longitude": 81.0228278
  },
  {
    "HospitalName": "Divine Heart Hospital And Research Centre",
    "Address": "Vineet Khand-Ii, Gomti Nagar",
    "City": "Lucknow",
    "State": "Uttar Pradesh",
    "Pincode": 226010,
    "Phone": "0522 - 2721991 / 2726473 / 2725548 / 09415106233",
    "no": 5408,
    "TPAs": [
      "1",
      "2",
      "3",
      "5",
      "14",
      "10",
      "8",
      "6",
      "9",
      "4",
      "11",
      "13",
      "12",
      "10"
    ],
    "Latitude": 26.8588016,
    "Longitude": 81.02359849999999
  },
  {
    "HospitalName": "Lucknow HealthCity Trauma Centre And Superspeciality Hospital Pvt Ltd",
    "Address": "NH A & B , VIJAY KHAND - 2, GOMTI NAGAR, LUCKNOW",
    "City": "Lucknow",
    "State": "Uttar Pradesh",
    "Pincode": 226010,
    "Phone": "2304177/2304377",
    "no": 5413,
    "TPAs": [
      "1",
      "2",
      "3",
      "5",
      "14",
      "10",
      "8",
      "6",
      "9",
      "4",
      "11",
      "13",
      "12",
      "10"
    ],
    "Latitude": 26.8566497,
    "Longitude": 80.9936055
  },
  {
    "HospitalName": "Mayo Medical Centre",
    "Address": "Vikas Khand-2, Gomti Nagar, Lucknow",
    "City": "Lucknow",
    "State": "Uttar Pradesh",
    "Pincode": 226010,
    "Phone": "0522 - 2398614 / 15",
    "no": 5415,
    "TPAs": [
      "1",
      "2",
      "3",
      "5",
      "14",
      "10",
      "8",
      "6",
      "9",
      "4",
      "11",
      "13",
      "12",
      "10"
    ],
    "Latitude": 26.851323,
    "Longitude": 80.99659199999999
  },
  {
    "HospitalName": "MEDANTA LUCKNOW",
    "Address": "SECTOR A, POCKET -- 1, SUSHANT GOLF City, AMAR SHAHEED PATH, LUCKNOW",
    "City": "Lucknow",
    "State": "Uttar Pradesh",
    "Pincode": 226001,
    "Phone": 4257900,
    "no": 5416,
    "TPAs": [
      "1",
      "2",
      "3",
      "5",
      "14",
      "10",
      "8",
      "6",
      "9",
      "4",
      "11",
      "13",
      "12",
      "10"
    ],
    "Latitude": 26.7775741,
    "Longitude": 80.9853637
  },
  {
    "HospitalName": "Prakash Netra Kendr",
    "Address": "Nh-2, Vipul Khand-4, Gomti Nagar",
    "City": "Lucknow",
    "State": "Uttar Pradesh",
    "Pincode": 226010,
    "Phone": "4033000/4046700",
    "no": 5417,
    "TPAs": [
      "1",
      "2",
      "3",
      "5",
      "14",
      "10",
      "8",
      "6",
      "9",
      "4",
      "11",
      "13",
      "12",
      "10"
    ],
    "Latitude": 26.8459095,
    "Longitude": 80.98716499999999
  },
  {
    "HospitalName": "Rajchandra Hospital And Research Centre",
    "Address": "4, 8- Damodar Nagar, Vip Road, Alambagh, Lucknow",
    "City": "Lucknow",
    "State": "Uttar Pradesh",
    "Pincode": 226005,
    "Phone": "522-2465610",
    "no": 5418,
    "TPAs": [
      "1",
      "2",
      "3",
      "5",
      "14",
      "10",
      "8",
      "6",
      "9",
      "4",
      "11",
      "13",
      "12",
      "10"
    ],
    "Latitude": 26.801073,
    "Longitude": 80.903921
  },
  {
    "HospitalName": "Rajendranagar Hospital",
    "Address": "No 74, Ii Street Rajendar Nagar",
    "City": "Lucknow",
    "State": "Uttar Pradesh",
    "Pincode": 226004,
    "Phone": "0522 - 2693600 / 2693652",
    "no": 5419,
    "TPAs": [
      "1",
      "2",
      "3",
      "5",
      "14",
      "10",
      "8",
      "6",
      "9",
      "4",
      "11",
      "13",
      "12",
      "10"
    ],
    "Latitude": 26.8407731,
    "Longitude": 80.9179402
  },
  {
    "HospitalName": "Sahar Hospital",
    "Address": "6,  Nabiullah Road,  River Bank Colonynear Playway School City Station",
    "City": "Lucknow",
    "State": "Uttar Pradesh",
    "Pincode": 226018,
    "Phone": 6534119,
    "no": 5420,
    "TPAs": [
      "1",
      "2",
      "3",
      "5",
      "14",
      "10",
      "8",
      "6",
      "9",
      "4",
      "11",
      "13",
      "12",
      "10"
    ],
    "Latitude": 26.861154,
    "Longitude": 80.9214568
  },
  {
    "HospitalName": "Shekar Hospital",
    "Address": "B, Block Church Road, Indira Nagar, Lucknow",
    "City": "Lucknow",
    "State": "Uttar Pradesh",
    "Pincode": 226016,
    "Phone": "0522 - 2352352 / 2352353",
    "no": 5423,
    "TPAs": [
      "1",
      "2",
      "3",
      "5",
      "14",
      "10",
      "8",
      "6",
      "9",
      "4",
      "11",
      "13",
      "12",
      "10"
    ],
    "Latitude": 26.8762008,
    "Longitude": 80.9855086
  },
  {
    "HospitalName": "Surgical & Maternity Centre Ahuja Hospital",
    "Address": "# 4 / 488, Vivek Khand, Near Patrakarpuram, Chauraha, Gomti Nagar",
    "City": "Lucknow",
    "State": "Uttar Pradesh",
    "Pincode": 226010,
    "Phone": "0522 - 2391760 / 2398303 / 2387077",
    "no": 5425,
    "TPAs": [
      "1",
      "2",
      "3",
      "5",
      "14",
      "10",
      "8",
      "6",
      "9",
      "4",
      "11",
      "13",
      "12",
      "10"
    ],
    "Latitude": 26.855863,
    "Longitude": 81.000593
  },
  {
    "HospitalName": "Susanjeevani Hospital And Maternity Centre",
    "Address": "B1/7 MAHANAGAR EXTENSION KAPOORTHALA",
    "City": "Lucknow",
    "State": "Uttar Pradesh",
    "Pincode": 226006,
    "Phone": 2331788,
    "no": 5426,
    "TPAs": [
      "1",
      "2",
      "3",
      "5",
      "14",
      "10",
      "8",
      "6",
      "9",
      "4",
      "11",
      "13",
      "12",
      "10"
    ],
    "Latitude": 26.8785897,
    "Longitude": 80.9498663
  },
  {
    "HospitalName": "Sushrut Institute Of Plastic Surgery Burns And Trauma",
    "Address": "29, Shahmeena Road",
    "City": "Lucknow",
    "State": "Uttar Pradesh",
    "Pincode": 226003,
    "Phone": "522-2258884-88",
    "no": 5427,
    "TPAs": [
      "1",
      "2",
      "3",
      "5",
      "14",
      "10",
      "8",
      "6",
      "9",
      "4",
      "11",
      "13",
      "12",
      "10"
    ],
    "Latitude": 26.8664421,
    "Longitude": 80.9202121
  },
  {
    "HospitalName": "Vivekanand Polyclinic",
    "Address": "Vivekananda Puram, Ramakrishna Mission Sevashram, Vivekanad Puri, Lucknow",
    "City": "Lucknow",
    "State": "Uttar Pradesh",
    "Pincode": 226007,
    "Phone": "0522 - 2321277 / 2328942",
    "no": 5429,
    "TPAs": [
      "1",
      "2",
      "3",
      "5",
      "14",
      "10",
      "8",
      "6",
      "9",
      "4",
      "11",
      "13",
      "12",
      "10"
    ],
    "Latitude": 26.8742577,
    "Longitude": 80.940096
  },
  {
    "HospitalName": "PAARTH EYE HOSPITAL AND RETINA CENTRE",
    "Address": "H1/54, Ganpati Complex, First Floor Opposite Hotel Cosmos, Raebareli road, Lucknow 226014",
    "City": "Lucknow",
    "State": "Uttar Pradesh",
    "Pincode": 226014,
    "Phone": 8353949191,
    "no": 5430,
    "TPAs": [
      "1",
      "2",
      "3",
      "5",
      "14",
      "10",
      "8",
      "6",
      "9",
      "4",
      "11",
      "13",
      "12",
      "10"
    ],
    "Latitude": 26.7541283,
    "Longitude": 80.9489706
  },
  {
    "HospitalName": "Gopi Krishna Hopsital",
    "Address": "General Ganj, Mathura",
    "City": "Mathura",
    "State": "Uttar Pradesh",
    "Pincode": 281001,
    "Phone": "0565 - 2550450 / 2410011 / 2550804",
    "no": 5431,
    "TPAs": [
      "1",
      "2",
      "3",
      "5",
      "14",
      "10",
      "8",
      "6",
      "9",
      "4",
      "11",
      "13",
      "12",
      "10"
    ],
    "Latitude": 27.4969643,
    "Longitude": 77.69044749999999
  },
  {
    "HospitalName": "Nayati Multi Super Speciality Hospital,Mathura",
    "Address": "near cng pump, NH- 2, Delhi-Agra highway, gayatri tapo bhoomi",
    "City": "Mathura",
    "State": "Uttar Pradesh",
    "Pincode": 281003,
    "Phone": 7111562,
    "no": 5432,
    "TPAs": [
      "1",
      "2",
      "3",
      "5",
      "14",
      "10",
      "8",
      "6",
      "9",
      "4",
      "11",
      "13",
      "12",
      "10"
    ],
    "Latitude": 27.4924134,
    "Longitude": 77.673673
  },
  {
    "HospitalName": "Anand Nirogdham Hospital Pvt Ltd",
    "Address": "A- 1, Damodar Colony Garh Road, Meerut",
    "City": "Meerut",
    "State": "Uttar Pradesh",
    "Pincode": 250004,
    "Phone": "0121 - 2792000 / 4016611 / 2666611",
    "no": 5435,
    "TPAs": [
      "1",
      "2",
      "3",
      "5",
      "14",
      "10",
      "8",
      "6",
      "9",
      "4",
      "11",
      "13",
      "12",
      "10"
    ],
    "Latitude": 28.9637518,
    "Longitude": 77.74989269999999
  },
  {
    "HospitalName": "Dhanvantri Jeevan Rekha Ltd",
    "Address": "# 1, Saket , Meerut , Up-250003",
    "City": "Meerut",
    "State": "Uttar Pradesh",
    "Pincode": 250003,
    "Phone": "0121 - 2648151 / 52",
    "no": 5437,
    "TPAs": [
      "1",
      "2",
      "3",
      "5",
      "14",
      "10",
      "8",
      "6",
      "9",
      "4",
      "11",
      "13",
      "12",
      "10"
    ],
    "Latitude": 28.9891351,
    "Longitude": 77.7248275
  },
  {
    "HospitalName": "Dr Sandeep Mithal Advanced Phaco Refractive And Vitreo Retinal Center",
    "Address": "125, Eastern Kutchery Road, Shivaji Road, Meerut",
    "City": "Meerut",
    "State": "Uttar Pradesh",
    "Pincode": 250001,
    "Phone": "2641133, 9259745922",
    "no": 5438,
    "TPAs": [
      "1",
      "2",
      "3",
      "5",
      "14",
      "10",
      "8",
      "6",
      "9",
      "4",
      "11",
      "13",
      "12",
      "10"
    ],
    "Latitude": 28.9831245,
    "Longitude": 77.7096663
  },
  {
    "HospitalName": "Kailashi Superspeciality Hospital",
    "Address": "C-2, Shradhapuri, Phase Ii, Kankarkhera, Meerut",
    "City": "Meerut",
    "State": "Uttar Pradesh",
    "Pincode": 250010,
    "Phone": 2632225,
    "no": 5442,
    "TPAs": [
      "1",
      "2",
      "3",
      "5",
      "14",
      "10",
      "8",
      "6",
      "9",
      "4",
      "11",
      "13",
      "12",
      "10"
    ],
    "Latitude": 29.0298895,
    "Longitude": 77.6710537
  },
  {
    "HospitalName": "Kmc Hospital And Research Centre( A Unit Of Kamna Medical Centre Pvt Ltd )",
    "Address": "187, Baghpat Road, Meerut -- 250002",
    "City": "Meerut",
    "State": "Uttar Pradesh",
    "Pincode": 250002,
    "Phone": "4002111/112/113/114",
    "no": 5443,
    "TPAs": [
      "1",
      "2",
      "3",
      "5",
      "14",
      "10",
      "8",
      "6",
      "9",
      "4",
      "11",
      "13",
      "12",
      "10"
    ],
    "Latitude": 28.972817,
    "Longitude": 77.6889956
  },
  {
    "HospitalName": "Parvati Polyclinic And Nursing Home",
    "Address": "Chibbi Tank, Meerut, Chibbi Tank, Meerut",
    "City": "Meerut",
    "State": "Uttar Pradesh",
    "Pincode": 250001,
    "Phone": "0121 - 2663047 / 2642235 / 9837033579",
    "no": 5445,
    "TPAs": [
      "1",
      "2",
      "3",
      "5",
      "14",
      "10",
      "8",
      "6",
      "9",
      "4",
      "11",
      "13",
      "12",
      "10"
    ],
    "Latitude": 28.9844618,
    "Longitude": 77.7064137
  },
  {
    "HospitalName": "Popular Medicare ",
    "Address": "243/3, Near Natwan Police Booth, Jangi Road, Mirzapur",
    "City": "Mirzapur",
    "State": "Uttar Pradesh",
    "Pincode": 231001,
    "Phone": "245047/48",
    "no": 5449,
    "TPAs": [
      "1",
      "2",
      "3",
      "5",
      "14",
      "10",
      "8",
      "6",
      "9",
      "4",
      "11",
      "13",
      "12",
      "10"
    ],
    "Latitude": 25.1437475,
    "Longitude": 82.5535689
  },
  {
    "HospitalName": "Teerthankar Mahaveer Hospital And Research Centre",
    "Address": "Nh-34, Delhi Road, Bagarpur, Pakwara",
    "City": "Moradabad",
    "State": "Uttar Pradesh",
    "Pincode": 244001,
    "Phone": "591-2476820",
    "no": 5455,
    "TPAs": [
      "1",
      "2",
      "3",
      "5",
      "14",
      "10",
      "8",
      "6",
      "9",
      "4",
      "11",
      "13",
      "12",
      "10"
    ],
    "Latitude": 28.827224,
    "Longitude": 78.7350584
  },
  {
    "HospitalName": "Gupta Nurssing Home And Laparoscopy Centre",
    "Address": "34/31 Shyam Niwas, Mahavir Chock, Muzaffar Nagar",
    "City": "Muzaffarnagar",
    "State": "Uttar Pradesh",
    "Pincode": 251001,
    "Phone": "0131 - 2621020 / 3290777",
    "no": 5458,
    "TPAs": [
      "1",
      "2",
      "3",
      "5",
      "14",
      "10",
      "8",
      "6",
      "9",
      "4",
      "11",
      "13",
      "12",
      "10"
    ],
    "Latitude": 29.4665219,
    "Longitude": 77.6839557
  },
  {
    "HospitalName": "A M Vein Research Institute Pvt Ltd ",
    "Address": "A-73, Sector -35, Noida",
    "City": "Noida",
    "State": "Uttar Pradesh",
    "Pincode": 201301,
    "Phone": "0124 - 2506789 /8826588244 / 8826699523 ",
    "no": 5459,
    "TPAs": [
      "1",
      "2",
      "3",
      "5",
      "14",
      "10",
      "8",
      "6",
      "9",
      "4",
      "11",
      "13",
      "12",
      "10"
    ],
    "Latitude": 28.5830232,
    "Longitude": 77.3546098
  },
  {
    "HospitalName": "Dipakshi Nursing And Maternity Home Pvt Ltd",
    "Address": "C-53 A, Sec-33, Noida",
    "City": "Noida",
    "State": "Uttar Pradesh",
    "Pincode": 201301,
    "Phone": "0120 - 2505328 / 29",
    "no": 5463,
    "TPAs": [
      "1",
      "2",
      "3",
      "5",
      "14",
      "10",
      "8",
      "6",
      "9",
      "4",
      "11",
      "13",
      "12",
      "10"
    ],
    "Latitude": 28.5873754,
    "Longitude": 77.3567529
  },
  {
    "HospitalName": "Goodwill Hospital Research Centre Ltd ",
    "Address": "D 141 (A & B), Sector 40",
    "City": "Noida",
    "State": "Uttar Pradesh",
    "Pincode": 201301,
    "Phone": "0120 - 2500611 / 711 / 4635777",
    "no": 5468,
    "TPAs": [
      "1",
      "2",
      "3",
      "5",
      "14",
      "10",
      "8",
      "6",
      "9",
      "4",
      "11",
      "13",
      "12",
      "10"
    ],
    "Latitude": 28.563999,
    "Longitude": 77.35569919999999
  },
  {
    "HospitalName": "Indo Gulf Hospital",
    "Address": "B-498a, Sector- 19, Opposite Hotel Fortune",
    "City": "Noida",
    "State": "Uttar Pradesh",
    "Pincode": 201301,
    "Phone": "120-4752300-99",
    "no": 5471,
    "TPAs": [
      "1",
      "2",
      "3",
      "5",
      "14",
      "10",
      "8",
      "6",
      "9",
      "4",
      "11",
      "13",
      "12",
      "10"
    ],
    "Latitude": 28.5771755,
    "Longitude": 77.3271127
  },
  {
    "HospitalName": "Kailash Hospital Ltd",
    "Address": "A-101, New Ashok Nagar, Greater Noida, 23, Institutional Area",
    "City": "Noida",
    "State": "Uttar Pradesh",
    "Pincode": 201306,
    "Phone": "0120 - 2322222 / 2321111",
    "no": 5474,
    "TPAs": [
      "1",
      "2",
      "3",
      "5",
      "14",
      "10",
      "8",
      "6",
      "9",
      "4",
      "11",
      "13",
      "12",
      "10"
    ],
    "Latitude": 28.596865,
    "Longitude": 77.309407
  },
  {
    "HospitalName": "Metro Hospitals And Heart Institutes",
    "Address": "X-1, Sector - 12 , Noida -U.P.",
    "City": "Noida",
    "State": "Uttar Pradesh",
    "Pincode": 201301,
    "Phone": "0120 - 2533491/ 2444466 / 4366666 / 9810128222",
    "no": 5477,
    "TPAs": [
      "1",
      "2",
      "3",
      "5",
      "14",
      "10",
      "8",
      "6",
      "9",
      "4",
      "11",
      "13",
      "12",
      "10"
    ],
    "Latitude": 28.5973838,
    "Longitude": 77.33795429999999
  },
  {
    "HospitalName": "S J M Superspeciality Hospital",
    "Address": "Plot No 2, Near Shani Mandir, Hindon Bridge, Nh24, Sector 63, Noida, Uttar Pradesh",
    "City": "Noida",
    "State": "Uttar Pradesh",
    "Pincode": 122002,
    "Phone": 2419900,
    "no": 5487,
    "TPAs": [
      "1",
      "2",
      "3",
      "5",
      "14",
      "10",
      "8",
      "6",
      "9",
      "4",
      "11",
      "13",
      "12",
      "10"
    ],
    "Latitude": 28.6209681,
    "Longitude": 77.3811702
  },
  {
    "HospitalName": "Shivalik Medical Centre",
    "Address": "Main Road, Hoshiyapur, Sector 51, Noida (Gb Nagar)",
    "City": "Noida",
    "State": "Uttar Pradesh",
    "Pincode": 201301,
    "Phone": "0120 - 2485500 / 2485540 / 9910401559",
    "no": 5490,
    "TPAs": [
      "1",
      "2",
      "3",
      "5",
      "14",
      "10",
      "8",
      "6",
      "9",
      "4",
      "11",
      "13",
      "12",
      "10"
    ],
    "Latitude": 28.584058,
    "Longitude": 77.3690764
  },
  {
    "HospitalName": "Tripathi Hospital Pvt Ltd",
    "Address": "Nh-1a, Sector 119, Noida--201306",
    "City": "Noida",
    "State": "Uttar Pradesh",
    "Pincode": 201306,
    "Phone": "9711621080/9711621081",
    "no": 5495,
    "TPAs": [
      "1",
      "2",
      "3",
      "5",
      "14",
      "10",
      "8",
      "6",
      "9",
      "4",
      "11",
      "13",
      "12",
      "10"
    ],
    "Latitude": 28.5867512,
    "Longitude": 77.4007987
  },
  {
    "HospitalName": "Yatharth Wellness Hospital And Heart Centre",
    "Address": "Plot No 1, Sector-110",
    "City": "Noida",
    "State": "Uttar Pradesh",
    "Pincode": 201304,
    "Phone": "120-2973332/330",
    "no": 5498,
    "TPAs": [
      "1",
      "2",
      "3",
      "5",
      "14",
      "10",
      "8",
      "6",
      "9",
      "4",
      "11",
      "13",
      "12",
      "10"
    ],
    "Latitude": 28.5320816,
    "Longitude": 77.3846466
  },
  {
    "HospitalName": "Narayan Hospital And Trauma Centre",
    "Address": "Opp Ran Public School, Bilaspur Road, Village Bharatpur, P.O",
    "City": "Rampur",
    "State": "Uttar Pradesh",
    "Pincode": 244923,
    "Phone": 241300,
    "no": 5500,
    "TPAs": [
      "1",
      "2",
      "3",
      "5",
      "14",
      "10",
      "8",
      "6",
      "9",
      "4",
      "11",
      "13",
      "12",
      "10"
    ],
    "Latitude": 28.9572021,
    "Longitude": 79.3819258
  },
  {
    "HospitalName": "Eye Q Super Specialty Eye Hospitals -Saharanpur",
    "Address": "Sadar Thana Road, Hakikat Nagar Mod Saharanpur",
    "City": "Saharanpur",
    "State": "Uttar Pradesh",
    "Pincode": 247001,
    "Phone": 9359739504,
    "no": 5501,
    "TPAs": [
      "1",
      "2",
      "3",
      "5",
      "14",
      "10",
      "8",
      "6",
      "9",
      "4",
      "11",
      "13",
      "12",
      "10"
    ],
    "Latitude": 29.9516006,
    "Longitude": 77.5506517
  },
  {
    "HospitalName": "Medigram Superspeciality Hospital",
    "Address": "7th KM milestone, Chunhaiti, delhi Road",
    "City": "Saharanpur",
    "State": "Uttar Pradesh",
    "Pincode": 247001,
    "Phone": 2764100,
    "no": 5502,
    "TPAs": [
      "1",
      "2",
      "3",
      "5",
      "14",
      "10",
      "8",
      "6",
      "9",
      "4",
      "11",
      "13",
      "12",
      "10"
    ],
    "Latitude": 29.9067413,
    "Longitude": 77.5167955
  },
  {
    "HospitalName": "Prankur Nursing Home Pvt Ltd",
    "Address": "Mahipura Dehradun Road, S R E",
    "City": "Saharanpur",
    "State": "Uttar Pradesh",
    "Pincode": 247001,
    "Phone": "1327-2661254",
    "no": 5503,
    "TPAs": [
      "1",
      "2",
      "3",
      "5",
      "14",
      "10",
      "8",
      "6",
      "9",
      "4",
      "11",
      "13",
      "12",
      "10"
    ],
    "Latitude": 29.969274,
    "Longitude": 77.5851176
  },
  {
    "HospitalName": "Shanti Eye Hospital",
    "Address": "Opp Subzi Mandi, Near Dig Residence, Delhi Road",
    "City": "Saharanpur",
    "State": "Uttar Pradesh",
    "Pincode": 247001,
    "Phone": "0132-2960406",
    "no": 5505,
    "TPAs": [
      "1",
      "2",
      "3",
      "5",
      "14",
      "10",
      "8",
      "6",
      "9",
      "4",
      "11",
      "13",
      "12",
      "10"
    ],
    "Latitude": 29.9466038,
    "Longitude": 77.5464945
  },
  {
    "HospitalName": "Bohra Speciality Hospital And Trauma Centre",
    "Address": "Shamli , Distt M Nagar",
    "City": "Shamli",
    "State": "Uttar Pradesh",
    "Pincode": 247776,
    "Phone": "01398 - 250602 / 9837783966",
    "no": 5506,
    "TPAs": [
      "1",
      "2",
      "3",
      "5",
      "14",
      "10",
      "8",
      "6",
      "9",
      "4",
      "11",
      "13",
      "12",
      "10"
    ],
    "Latitude": 29.4501986,
    "Longitude": 77.3172046
  },
  {
    "HospitalName": "Sahara Hospital And Surgical Center",
    "Address": "Bypass Road, Gandhi Nagar, Ward-06, Robertganj",
    "City": "Sonebhadra",
    "State": "Uttar Pradesh",
    "Pincode": 231216,
    "Phone": 7068024796,
    "no": 5508,
    "TPAs": [
      "1",
      "2",
      "3",
      "5",
      "14",
      "10",
      "8",
      "6",
      "9",
      "4",
      "11",
      "13",
      "12",
      "10"
    ],
    "Latitude": 27.1565768,
    "Longitude": 78.3977314
  },
  {
    "HospitalName": "Mother And Child Care Centre",
    "Address": "Near Kalyangiri Mandir, Hardoi Rd, Thakurganj, Hardoi Road",
    "City": "Thakurganj",
    "State": "Uttar Pradesh",
    "Pincode": 226003,
    "Phone": "522-2404300/2404522",
    "no": 5509,
    "TPAs": [
      "1",
      "2",
      "3",
      "5",
      "14",
      "10",
      "8",
      "6",
      "9",
      "4",
      "11",
      "13",
      "12",
      "10"
    ],
    "Latitude": 26.8727461,
    "Longitude": 80.8902385
  },
  {
    "HospitalName": "Subhi Hospital And Trauma Centre",
    "Address": "464, Sekhpur Ward No 9, Unnao, Uttarpradesh",
    "City": "Unnao",
    "State": "Uttar Pradesh",
    "Pincode": 209801,
    "Phone": 9794131075,
    "no": 5510,
    "TPAs": [
      "1",
      "2",
      "3",
      "5",
      "14",
      "10",
      "8",
      "6",
      "9",
      "4",
      "11",
      "13",
      "12",
      "10"
    ],
    "Latitude": 26.535012,
    "Longitude": 80.4696936
  },
  {
    "HospitalName": "Asg Hospitals Pvt Ltd",
    "Address": "GROUND FLOOR, CORPORATE PLAZA, GOPAL VIHAR COLONY, NEAR AGR AUTOMOBILES, MAHMOORGANJ, ",
    "City": "Varanasi",
    "State": "Uttar Pradesh",
    "Pincode": 221010,
    "Phone": 2363025,
    "no": 5515,
    "TPAs": [
      "1",
      "2",
      "3",
      "5",
      "14",
      "10",
      "8",
      "6",
      "9",
      "4",
      "11",
      "13",
      "12",
      "10"
    ],
    "Latitude": 25.3058242,
    "Longitude": 82.9846467
  },
  {
    "HospitalName": "Ayushman Hospital Varanasi",
    "Address": "6,GIRINAGAR,BIRDOPUR,MEHMOORGANJ",
    "City": "Varanasi",
    "State": "Uttar Pradesh",
    "Pincode": 221010,
    "Phone": 2360181,
    "no": 5517,
    "TPAs": [
      "1",
      "2",
      "3",
      "5",
      "14",
      "10",
      "8",
      "6",
      "9",
      "4",
      "11",
      "13",
      "12",
      "10"
    ],
    "Latitude": 25.3039953,
    "Longitude": 82.9867501
  },
  {
    "HospitalName": "GYAN VISHNU HOSPITAL PVT LTD",
    "Address": "DLW Rd, Gokul Nagar, DLW Colony, Chitaipur, Kanchanpur, Uttar Pradesh 221108",
    "City": "Varanasi",
    "State": "Uttar Pradesh",
    "Pincode": 221108,
    "Phone": 2316041,
    "no": 5519,
    "TPAs": [
      "1",
      "2",
      "3",
      "5",
      "14",
      "10",
      "8",
      "6",
      "9",
      "4",
      "11",
      "13",
      "12",
      "10"
    ],
    "Latitude": 25.2728624,
    "Longitude": 82.967311
  },
  {
    "HospitalName": "J P Nursing Home",
    "Address": "Dlw Road, Kakarmatta",
    "City": "Varanasi",
    "State": "Uttar Pradesh",
    "Pincode": 221009,
    "Phone": "0542 - 2300456 / 3290279",
    "no": 5520,
    "TPAs": [
      "1",
      "2",
      "3",
      "5",
      "14",
      "10",
      "8",
      "6",
      "9",
      "4",
      "11",
      "13",
      "12",
      "10"
    ],
    "Latitude": 25.2891526,
    "Longitude": 82.9709015
  },
  {
    "HospitalName": "Jamuna Sewa Sadan And Research Centre",
    "Address": "S-15/47, Panchkoshi Road (Behind Thana Shivpur)",
    "City": "Varanasi",
    "State": "Uttar Pradesh",
    "Pincode": 221003,
    "Phone": "542-2283800",
    "no": 5521,
    "TPAs": [
      "1",
      "2",
      "3",
      "5",
      "14",
      "10",
      "8",
      "6",
      "9",
      "4",
      "11",
      "13",
      "12",
      "10"
    ],
    "Latitude": 25.3586504,
    "Longitude": 82.952934
  },
  {
    "HospitalName": "Mahashweta Hospital Pvt Ltd",
    "Address": "M.A. Road, Opp. District Jail, Chaukaghat",
    "City": "Varanasi",
    "State": "Uttar Pradesh",
    "Pincode": 221001,
    "Phone": "542-2507216, 9415685220",
    "no": 5522,
    "TPAs": [
      "1",
      "2",
      "3",
      "5",
      "14",
      "10",
      "8",
      "6",
      "9",
      "4",
      "11",
      "13",
      "12",
      "10"
    ],
    "Latitude": 25.3402502,
    "Longitude": 82.99206430000001
  },
  {
    "HospitalName": "Meridian Nursing Homes Hospital Pvt Ltd",
    "Address": "Opp Power House , Ledupur, Ashapur",
    "City": "Varanasi",
    "State": "Uttar Pradesh",
    "Pincode": 221007,
    "Phone": "0542 - 2591300",
    "no": 5523,
    "TPAs": [
      "1",
      "2",
      "3",
      "5",
      "14",
      "10",
      "8",
      "6",
      "9",
      "4",
      "11",
      "13",
      "12",
      "10"
    ],
    "Latitude": 25.3679607,
    "Longitude": 83.047086
  },
  {
    "HospitalName": "Popular Medicare Ltd ",
    "Address": "N-10/60, A-2, Near Kakarmatta Railway Crossing, Varanasi.",
    "City": "Varanasi",
    "State": "Uttar Pradesh",
    "Pincode": 221004,
    "Phone": "0542 - 2300258 / 9335048723 / 9305422730",
    "no": 5525,
    "TPAs": [
      "1",
      "2",
      "3",
      "5",
      "14",
      "10",
      "8",
      "6",
      "9",
      "4",
      "11",
      "13",
      "12",
      "10"
    ],
    "Latitude": 25.292641,
    "Longitude": 82.9703967
  },
  {
    "HospitalName": "Purvanchal Netralaya & Retina Care Center",
    "Address": "C21/1-41, Vidyapeeth Rd, Maldahiya Crossing, Near OBC ATM, Maldahiya, Lajpat Nagar,",
    "City": "Varanasi",
    "State": "Uttar Pradesh",
    "Pincode": 221002,
    "Phone": 2390763,
    "no": 5526,
    "TPAs": [
      "1",
      "2",
      "3",
      "5",
      "14",
      "10",
      "8",
      "6",
      "9",
      "4",
      "11",
      "13",
      "12",
      "10"
    ],
    "Latitude": 25.315656,
    "Longitude": 82.988078
  },
  {
    "HospitalName": "The Fracture Clinic And Trauma Centre",
    "Address": "B/38/47-D5, Mamoorganj, Near Reliance Petrol Pump, Varanasi",
    "City": "Varanasi",
    "State": "Uttar Pradesh",
    "Pincode": 282010,
    "Phone": "0562-3265602",
    "no": 5531,
    "TPAs": [
      "1",
      "2",
      "3",
      "5",
      "14",
      "10",
      "8",
      "6",
      "9",
      "4",
      "11",
      "13",
      "12",
      "10"
    ],
    "Latitude": 25.3047084,
    "Longitude": 82.9792705
  },
  {
    "HospitalName": "Drishti Eye Centre And Luthra Nursing Home",
    "Address": "# 58, Chakrata Road & 9-B Astley Hall",
    "City": "Dehradun",
    "State": "Uttarakhand",
    "Pincode": 248001,
    "Phone": "0135-2717500/2531354/2531729/2530532",
    "no": 5536,
    "TPAs": [
      "1",
      "2",
      "3",
      "5",
      "14",
      "10",
      "8",
      "6",
      "9",
      "4",
      "11",
      "13",
      "12",
      "10"
    ],
    "Latitude": 30.3303923,
    "Longitude": 78.0295081
  },
  {
    "HospitalName": "Himalayan Hospital(a unit of Swami Rama Himalayan University)",
    "Address": "Swami Ram Mandir, Doiwala",
    "City": "Dehradun",
    "State": "Uttarakhand",
    "Pincode": 248140,
    "Phone": "0135 - 2471603 / 2471200/300",
    "no": 5537,
    "TPAs": [
      "1",
      "2",
      "3",
      "5",
      "14",
      "10",
      "8",
      "6",
      "9",
      "4",
      "11",
      "13",
      "12",
      "10"
    ],
    "Latitude": 30.1758771,
    "Longitude": 78.1242422
  },
  {
    "HospitalName": "Navjyoti Eye Hospital And Dehradun Wave Lasik Centre",
    "Address": "Near Lic Div. Office, Nehru Nagar Colony",
    "City": "Dehradun",
    "State": "Uttarakhand",
    "Pincode": 248001,
    "Phone": "0135-2672302",
    "no": 5539,
    "TPAs": [
      "1",
      "2",
      "3",
      "5",
      "14",
      "10",
      "8",
      "6",
      "9",
      "4",
      "11",
      "13",
      "12",
      "10"
    ],
    "Latitude": 30.29859239999999,
    "Longitude": 78.05269899999999
  },
  {
    "HospitalName": "Brijlal Hospital And Research Centre Pvt Ltd",
    "Address": "Anandi Tower, Nainital Road",
    "City": "Haldwani",
    "State": "Uttarakhand",
    "Pincode": 263139,
    "Phone": "05946 - 284816/9837811111",
    "no": 5544,
    "TPAs": [
      "1",
      "2",
      "3",
      "5",
      "14",
      "10",
      "8",
      "6",
      "9",
      "4",
      "11",
      "13",
      "12",
      "10"
    ],
    "Latitude": 29.241988,
    "Longitude": 79.53553699999999
  },
  {
    "HospitalName": "City Hospital And Research Centre",
    "Address": "Bareilly Road , Teen Pani Haldwani -263139, Haldwani",
    "City": "Haldwani",
    "State": "Uttarakhand",
    "Pincode": 263139,
    "Phone": "05946 - 329957 / 329763",
    "no": 5546,
    "TPAs": [
      "1",
      "2",
      "3",
      "5",
      "14",
      "10",
      "8",
      "6",
      "9",
      "4",
      "11",
      "13",
      "12",
      "10"
    ],
    "Latitude": 28.3670355,
    "Longitude": 79.4304381
  },
  {
    "HospitalName": "Drishti Center For Advanced Eye Care",
    "Address": "Durga\u00a0City\u00a0Center (Near M..B. Degree College), Nainital Road, Haldwani",
    "City": "Haldwani",
    "State": "Uttarakhand",
    "Pincode": 263139,
    "Phone": "5946-280777",
    "no": 5547,
    "TPAs": [
      "1",
      "2",
      "3",
      "5",
      "14",
      "10",
      "8",
      "6",
      "9",
      "4",
      "11",
      "13",
      "12",
      "10"
    ],
    "Latitude": 29.2293836,
    "Longitude": 79.5301205
  },
  {
    "HospitalName": "Tewari Maternity Centre And Nursing Home",
    "Address": "Kaladhungi Road, Mukhani, Haldwani, Nainital District",
    "City": "Haldwani",
    "State": "Uttarakhand",
    "Pincode": 263139,
    "Phone": "5946-263674",
    "no": 5552,
    "TPAs": [
      "1",
      "2",
      "3",
      "5",
      "14",
      "10",
      "8",
      "6",
      "9",
      "4",
      "11",
      "13",
      "12",
      "10"
    ],
    "Latitude": 29.21695,
    "Longitude": 79.5180405
  },
  {
    "HospitalName": "Neelkanth Multispecialty Hospital",
    "Address": "Near Susheela tiwari govt. hospital, haldwani",
    "City": "Haldwani",
    "State": "Uttarakhand",
    "Pincode": 263139,
    "Phone": 254050,
    "no": 5554,
    "TPAs": [
      "1",
      "2",
      "3",
      "5",
      "14",
      "10",
      "8",
      "6",
      "9",
      "4",
      "11",
      "13",
      "12",
      "10"
    ],
    "Latitude": 29.2061327,
    "Longitude": 79.51621589999999
  },
  {
    "HospitalName": "Yog Mata Pilot Baba Multispeciality Hospital Haridwar",
    "Address": "Deshrakshak mod, Laksar road, kankhal, haridwar",
    "City": "Haridwar",
    "State": "Uttarakhand",
    "Pincode": 249408,
    "Phone": "240707/7455820007/8700531480",
    "no": 5556,
    "TPAs": [
      "1",
      "2",
      "3",
      "5",
      "14",
      "10",
      "8",
      "6",
      "9",
      "4",
      "11",
      "13",
      "12",
      "10"
    ],
    "Latitude": 29.9217292,
    "Longitude": 78.1362948
  },
  {
    "HospitalName": "Sanjeevani Multi-Speciality Hospital",
    "Address": "NEAR DHELA PUL MORADABAD ROAD, KASHIPUR , U S NAGAR,",
    "City": "Kashipur",
    "State": "Uttarakhand",
    "Pincode": 244713,
    "Phone": 7351577772,
    "no": 5557,
    "TPAs": [
      "1",
      "2",
      "3",
      "5",
      "14",
      "10",
      "8",
      "6",
      "9",
      "4",
      "11",
      "13",
      "12",
      "10"
    ],
    "Latitude": 29.1984596,
    "Longitude": 78.9344672
  },
  {
    "HospitalName": "Raturi Hospital",
    "Address": "Tanakpur Road Amoun Khatima (U S Nagar)",
    "City": "Khatima",
    "State": "Uttarakhand",
    "Pincode": 262308,
    "Phone": "5943-250414",
    "no": 5560,
    "TPAs": [
      "1",
      "2",
      "3",
      "5",
      "14",
      "10",
      "8",
      "6",
      "9",
      "4",
      "11",
      "13",
      "12",
      "10"
    ],
    "Latitude": 28.926081,
    "Longitude": 79.97702389999999
  },
  {
    "HospitalName": "Abhilasha Eye Hospital, Roorkee",
    "Address": "Railway road, roorkee, haridwar distt.",
    "City": "Roorkee",
    "State": "Uttarakhand",
    "Pincode": 247667,
    "Phone": 272586,
    "no": 5561,
    "TPAs": [
      "1",
      "2",
      "3",
      "5",
      "14",
      "10",
      "8",
      "6",
      "9",
      "4",
      "11",
      "13",
      "12",
      "10"
    ],
    "Latitude": 29.8565247,
    "Longitude": 77.8792749
  },
  {
    "HospitalName": "Dr Futelas Hospital",
    "Address": "Nainital Road, Udham Singh Road, Uttaranchal, rudrapur",
    "City": "UDHAM SINGH NAGAR",
    "State": "Uttarakhand",
    "Pincode": 244713,
    "Phone": "05944 - 240247",
    "no": 5568,
    "TPAs": [
      "1",
      "2",
      "3",
      "5",
      "14",
      "10",
      "8",
      "6",
      "9",
      "4",
      "11",
      "13",
      "12",
      "10"
    ],
    "Latitude": 28.9820596,
    "Longitude": 79.3994282
  },
  {
    "HospitalName": "Ispat Co-Operative Hospital",
    "Address": "Vill+PO Kalikapur,PS Sonarpur",
    "City": "24 Parganas",
    "State": "West Bengal",
    "Pincode": 743330,
    "Phone": "9674737957/9674483465",
    "no": 5569,
    "TPAs": [
      "1",
      "2",
      "3",
      "5",
      "14",
      "10",
      "8",
      "6",
      "9",
      "4",
      "11",
      "13",
      "12",
      "10"
    ],
    "Latitude": 22.4234475,
    "Longitude": 88.50263369999999
  },
  {
    "HospitalName": "H L G Memorial Charitable Hosp And Res Inst",
    "Address": "Housing More Sen Raleigh Road , Asansol, Asansol",
    "City": "Asansol",
    "State": "West Bengal",
    "Pincode": 713304,
    "Phone": "0341 - 2251510 / 2256611 / 8348689036",
    "no": 5571,
    "TPAs": [
      "1",
      "2",
      "3",
      "5",
      "14",
      "10",
      "8",
      "6",
      "9",
      "4",
      "11",
      "13",
      "12",
      "10"
    ],
    "Latitude": 23.6953803,
    "Longitude": 86.9517365
  },
  {
    "HospitalName": "Sterling Hospital (A unit of Sanjeebani Clinic Pvt Ltd)",
    "Address": "641/382 R.N. Road Burnpur, Rabindra Sarani",
    "City": "Asansol",
    "State": "West Bengal",
    "Pincode": 713304,
    "Phone": "2257760/61",
    "no": 5574,
    "TPAs": [
      "1",
      "2",
      "3",
      "5",
      "14",
      "10",
      "8",
      "6",
      "9",
      "4",
      "11",
      "13",
      "12",
      "10"
    ],
    "Latitude": 23.693442,
    "Longitude": 86.9391863
  },
  {
    "HospitalName": "Lifecare Nursing Home",
    "Address": "27, Dharamtala Road, Belur Station road",
    "City": "Bally",
    "State": "West Bengal",
    "Pincode": 711201,
    "Phone": 26549990,
    "no": 5575,
    "TPAs": [
      "1",
      "2",
      "3",
      "5",
      "14",
      "10",
      "8",
      "6",
      "9",
      "4",
      "11",
      "13",
      "12",
      "10"
    ],
    "Latitude": 22.6372921,
    "Longitude": 88.347314
  },
  {
    "HospitalName": "Bankura Seva Niketan",
    "Address": "Patpur (Jail Road)",
    "City": "Bankura",
    "State": "West Bengal",
    "Pincode": 722101,
    "Phone": 250123,
    "no": 5579,
    "TPAs": [
      "1",
      "2",
      "3",
      "5",
      "14",
      "10",
      "8",
      "6",
      "9",
      "4",
      "11",
      "13",
      "12",
      "10"
    ],
    "Latitude": 23.230477,
    "Longitude": 87.0637922
  },
  {
    "HospitalName": "Glocal Healthcare Systems Pvt Ltd. Ghspl Bankura Sonamukhi",
    "Address": "Gangadinanga, Bankura to Burdwan Road,",
    "City": "Bankura",
    "State": "West Bengal",
    "Pincode": 722207,
    "Phone": 18001234425,
    "no": 5580,
    "TPAs": [
      "1",
      "2",
      "3",
      "5",
      "14",
      "10",
      "8",
      "6",
      "9",
      "4",
      "11",
      "13",
      "12",
      "10"
    ],
    "Latitude": 23.300452,
    "Longitude": 87.4165177
  },
  {
    "HospitalName": "Hardik Medical Diagnostics Centre ",
    "Address": "#442/3, Rabindra Sarani, Near Sadar Police Station",
    "City": "Bankura",
    "State": "West Bengal",
    "Pincode": 722101,
    "Phone": "03242 - 250830 / 258281",
    "no": 5581,
    "TPAs": [
      "1",
      "2",
      "3",
      "5",
      "14",
      "10",
      "8",
      "6",
      "9",
      "4",
      "11",
      "13",
      "12",
      "10"
    ],
    "Latitude": 23.2290173,
    "Longitude": 87.0650019
  },
  {
    "HospitalName": "Jeeban Suraksha Hospital Unit-Ii",
    "Address": "Vill-Pirorgari More, P.O. Sukhadali, P.S Sarenga, Dist Bankura",
    "City": "Bankura",
    "State": "West Bengal",
    "Pincode": 722150,
    "Phone": 8170021313,
    "no": 5583,
    "TPAs": [
      "1",
      "2",
      "3",
      "5",
      "14",
      "10",
      "8",
      "6",
      "9",
      "4",
      "11",
      "13",
      "12",
      "10"
    ],
    "Latitude": 22.8207468,
    "Longitude": 87.00884080000002
  },
  {
    "HospitalName": "Eco Hospital",
    "Address": "Iii/1, Jessor Roadbarasat, Po-Barasat, Dist-24 Pgs (N)Kolkata",
    "City": "Barasat",
    "State": "West Bengal",
    "Pincode": 700124,
    "Phone": "033 - 25626/854 / 2548-0111 / 2548-0452",
    "no": 5585,
    "TPAs": [
      "1",
      "2",
      "3",
      "5",
      "14",
      "10",
      "8",
      "6",
      "9",
      "4",
      "11",
      "13",
      "12",
      "10"
    ],
    "Latitude": 22.7238607,
    "Longitude": 88.4926289
  },
  {
    "HospitalName": "Mega City N H",
    "Address": "12 Jessore Road, Chanpadali, Barasat, 24pgs(N)",
    "City": "Barasat",
    "State": "West Bengal",
    "Pincode": 700124,
    "Phone": "033 - 25526319",
    "no": 5586,
    "TPAs": [
      "1",
      "2",
      "3",
      "5",
      "14",
      "10",
      "8",
      "6",
      "9",
      "4",
      "11",
      "13",
      "12",
      "10"
    ],
    "Latitude": 22.720295,
    "Longitude": 88.48862299999999
  },
  {
    "HospitalName": "BMRC Hospitals Limited",
    "Address": "6/6-B.T. Road, Talpukur",
    "City": "BARRACKPORE",
    "State": "West Bengal",
    "Pincode": 700123,
    "Phone": "033 - 25014947 / 4027",
    "no": 5588,
    "TPAs": [
      "1",
      "2",
      "3",
      "5",
      "14",
      "10",
      "8",
      "6",
      "9",
      "4",
      "11",
      "13",
      "12",
      "10"
    ],
    "Latitude": 22.7491392,
    "Longitude": 88.3725899
  },
  {
    "HospitalName": "Disha Eye Hospital And Res Centre Pvt Ltd",
    "Address": "88, (63a) Ghosh Para Rd.Barrackpore",
    "City": "BARRACKPORE",
    "State": "West Bengal",
    "Pincode": 700120,
    "Phone": "033 - 25947809 / 10",
    "no": 5589,
    "TPAs": [
      "1",
      "2",
      "3",
      "5",
      "14",
      "10",
      "8",
      "6",
      "9",
      "4",
      "11",
      "13",
      "12",
      "10"
    ],
    "Latitude": 22.823829,
    "Longitude": 88.378106
  },
  {
    "HospitalName": "Nehru Mrmorial Techno Global Hospital",
    "Address": "6 Barsat Road, Near Lalkuthi More, Barrakpore, 24 Pgs(N), Wb, India Kolkata",
    "City": "BARRACKPORE",
    "State": "West Bengal",
    "Pincode": 700120,
    "Phone": 66303030,
    "no": 5590,
    "TPAs": [
      "1",
      "2",
      "3",
      "5",
      "14",
      "10",
      "8",
      "6",
      "9",
      "4",
      "11",
      "13",
      "12",
      "10"
    ],
    "Latitude": 22.7649535,
    "Longitude": 88.3699542
  },
  {
    "HospitalName": "Glocal Healthcare Systems Pvt Ltd. Ghspl. Berhampur",
    "Address": "Radhikanagar, Karbala Road, Chalpatti, cossimbazar",
    "City": "Berhampore",
    "State": "West Bengal",
    "Pincode": 742102,
    "Phone": 18001234425,
    "no": 5594,
    "TPAs": [
      "1",
      "2",
      "3",
      "5",
      "14",
      "10",
      "8",
      "6",
      "9",
      "4",
      "11",
      "13",
      "12",
      "10"
    ],
    "Latitude": 24.1179699,
    "Longitude": 88.2813944
  }
]