[
  {
    "HospitalName": "DR RAJAN EYE CARE HOSPITAL ",
    "Address": "#324 GURU HARGOBIND NAGAR PHAGWARA",
    "City": "PHAGWARA",
    "State": "Punjab",
    "Pincode": 144401,
    "Phone": 500750,
    "no": 6253,
    "TPAs": [
      "1",
      "2",
      "3",
      "5",
      "14",
      "10",
      "8",
      "6",
      "9",
      "4",
      "11",
      "13",
      "12",
      "10"
    ],
    "Latitude": 31.2147048,
    "Longitude": 75.7773986
  },
  {
    "HospitalName": "A.V.R. Hospital",
    "Address": "Door No: 12-11-41 A, Old Club Road",
    "City": "Guntur",
    "State": "Andhra Pradesh",
    "Pincode": 522001,
    "Phone": "0863-2263699",
    "no": 6254,
    "TPAs": [
      "1",
      "2",
      "3",
      "5",
      "14",
      "10",
      "8",
      "6",
      "9",
      "4",
      "11",
      "13",
      "12",
      "10"
    ],
    "Latitude": 16.298533,
    "Longitude": 80.455445
  },
  {
    "HospitalName": "Morya Multispecialty Hospital ",
    "Address": "1st Floor, Anudatta Complex, Opp. Abhiruchi Citypride Mall, Sinhagad Road, Wadgaon Bk Pune",
    "City": "Pune",
    "State": "Maharashtra",
    "Pincode": 411041,
    "Phone": "020-24392121",
    "no": 6257,
    "TPAs": [
      "1",
      "2",
      "3",
      "5",
      "14",
      "10",
      "8",
      "6",
      "9",
      "4",
      "11",
      "13",
      "12",
      "10"
    ],
    "Latitude": 18.4571619,
    "Longitude": 73.8033639
  },
  {
    "HospitalName": "AARADHYA EYE HOSPITAL",
    "Address": "11, W-2, Juhi Kalan, Damodar Nagar, near Barra By Pass, Police Chowki, Kanpur, Uttar Pradesh 208027",
    "City": "Kanpur",
    "State": "Uttar Pradesh",
    "Pincode": 208027,
    "Phone": 6307779269,
    "no": 6258,
    "TPAs": [
      "1",
      "2",
      "3",
      "5",
      "14",
      "10",
      "8",
      "6",
      "9",
      "4",
      "11",
      "13",
      "12",
      "10"
    ],
    "Latitude": 26.427008,
    "Longitude": 80.306743
  },
  {
    "HospitalName": "NAVIN HOSPITAL( UNIT OF NAVIN HEALTHCARE P LTD)",
    "Address": "PLOT NO 302-303, NEAR COLD STORAGE, DADRI SIKANDRABAD ROAD, SIKANDRABAD",
    "City": "SIKANDRABAD",
    "State": "Uttar Pradesh",
    "Pincode": 203205,
    "Phone": 8006082222,
    "no": 6259,
    "TPAs": [
      "1",
      "2",
      "3",
      "5",
      "14",
      "10",
      "8",
      "6",
      "9",
      "4",
      "11",
      "13",
      "12",
      "10"
    ],
    "Latitude": 28.4587463,
    "Longitude": 77.6934655
  },
  {
    "HospitalName": "VASU CARDIAC CARE ",
    "Address": "20-3-126, LEELA MAHAL CIRCLE, TIRUMALA BYPASS ROAD, TIRUPATI.",
    "City": "TIRUPATI",
    "State": "Andhra Pradesh",
    "Pincode": 517501,
    "Phone": 2272666,
    "no": 6260,
    "TPAs": [
      "1",
      "2",
      "3",
      "5",
      "14",
      "10",
      "8",
      "6",
      "9",
      "4",
      "11",
      "13",
      "12",
      "10"
    ],
    "Latitude": 13.6421982,
    "Longitude": 79.428501
  },
  {
    "HospitalName": "Asian Globus Liver And Gatroenterology",
    "Address": "E-5/24,near Bittan market,opp arera petrol pump,arera colony",
    "City": "Bhopal",
    "State": "Madhya pradesh",
    "Pincode": 462001,
    "Phone": "4701333/420133",
    "no": 6261,
    "TPAs": [
      "1",
      "2",
      "3",
      "5",
      "14",
      "10",
      "8",
      "6",
      "9",
      "4",
      "11",
      "13",
      "12",
      "10"
    ],
    "Latitude": 23.2147383,
    "Longitude": 77.4268641
  },
  {
    "HospitalName": "KGP HOSPITAL",
    "Address": "100 FT ROAD, VINOBHA NAGAR",
    "City": "Shimoga",
    "State": "Karnataka",
    "Pincode": 577204,
    "Phone": 249940,
    "no": 6262,
    "TPAs": [
      "1",
      "2",
      "3",
      "5",
      "14",
      "10",
      "8",
      "6",
      "9",
      "4",
      "11",
      "13",
      "12",
      "10"
    ],
    "Latitude": 13.9492676,
    "Longitude": 75.5526324
  },
  {
    "HospitalName": "DR G S RANDHAWA EYE HOSPITAL",
    "Address": "46, DHALIWAL COLONY, PATIALA , 147001",
    "City": "Patiala",
    "State": "Punjab",
    "Pincode": 147001,
    "Phone": 2213444,
    "no": 6263,
    "TPAs": [
      "1",
      "2",
      "3",
      "5",
      "14",
      "10",
      "8",
      "6",
      "9",
      "4",
      "11",
      "13",
      "12",
      "10"
    ],
    "Latitude": 30.33207999999999,
    "Longitude": 76.386625
  },
  {
    "HospitalName": "Ginni Orthopaedic Centre ",
    "Address": "Sco \u2013 1, Sector \u2013 14, Hisar ",
    "City": "Hisar",
    "State": "Haryana",
    "Pincode": 125001,
    "Phone": 278994,
    "no": 6264,
    "TPAs": [
      "1",
      "2",
      "3",
      "5",
      "14",
      "10",
      "8",
      "6",
      "9",
      "4",
      "11",
      "13",
      "12",
      "10"
    ],
    "Latitude": 29.173735,
    "Longitude": 75.71349359999999
  },
  {
    "HospitalName": "SHREE VIJAYALAKSHMI HOSPITAL AND TRAUMA CENTRE ",
    "Address": "#3/666, HENNUR BANDE, KALYAN NAGAR",
    "City": "Bengaluru",
    "State": "Karnataka",
    "Pincode": 560043,
    "Phone": 9141076175,
    "no": 6265,
    "TPAs": [
      "1",
      "2",
      "3",
      "5",
      "14",
      "10",
      "8",
      "6",
      "9",
      "4",
      "11",
      "13",
      "12",
      "10"
    ],
    "Latitude": 13.0373654,
    "Longitude": 77.63958699999999
  },
  {
    "HospitalName": "Aayushyam speciality hospital ",
    "Address": "AKASH -IV, 1ST FLOOR ,OPP,PAVAN PARTY PLOT, NEAR ANKUR CROSS ROAD, NARANPURA",
    "City": "Ahmedabad",
    "State": "Gujarat",
    "Pincode": 380013,
    "Phone": 27436667,
    "no": 6267,
    "TPAs": [
      "1",
      "2",
      "3",
      "5",
      "14",
      "10",
      "8",
      "6",
      "9",
      "4",
      "11",
      "13",
      "12",
      "10"
    ],
    "Latitude": 23.0577115,
    "Longitude": 72.55330730000001
  },
  {
    "HospitalName": "Rhythm Heart Institute ( A unit Of Synergy Life care Pvt Ltd) )",
    "Address": "Nr.Siddarth bunglows, Sama- Savali Road, Vadodara ",
    "City": "Vadodara",
    "State": "Gujarat",
    "Pincode": 390022,
    "Phone": "2541003/2541004/851117266/8758470783",
    "no": 6268,
    "TPAs": [
      "1",
      "2",
      "3",
      "5",
      "14",
      "10",
      "8",
      "6",
      "9",
      "4",
      "11",
      "13",
      "12",
      "10"
    ],
    "Latitude": 22.3376878,
    "Longitude": 73.20492580000001
  },
  {
    "HospitalName": "SIDDHI MULTISPECIALITY HOSPITAL AND ICU ",
    "Address": "BESIDES FIRE BRIGADE,",
    "City": "Vadodara",
    "State": "Gujarat",
    "Pincode": 390001,
    "Phone": 2432100,
    "no": 6269,
    "TPAs": [
      "1",
      "2",
      "3",
      "5",
      "14",
      "10",
      "8",
      "6",
      "9",
      "4",
      "11",
      "13",
      "12",
      "10"
    ],
    "Latitude": 22.316012,
    "Longitude": 73.24463150000001
  },
  {
    "HospitalName": "Drushti Eye Institute Pvt. Ltd. ",
    "Address": "Varad Ganesh Mandir Road, Aurangabad",
    "City": "Aurangabad",
    "State": "Maharashtra",
    "Pincode": 431001,
    "Phone": 2333456,
    "no": 6273,
    "TPAs": [
      "1",
      "2",
      "3",
      "5",
      "14",
      "10",
      "8",
      "6",
      "9",
      "4",
      "11",
      "13",
      "12",
      "10"
    ],
    "Latitude": 19.8786305,
    "Longitude": 75.3206721
  },
  {
    "HospitalName": "Divya Jyot Eye Hospital",
    "Address": "316, Third Floor Orange Mall",
    "City": "Ahmedabad",
    "State": "Gujarat",
    "Pincode": 382424,
    "Phone": 23292329,
    "no": 6274,
    "TPAs": [
      "1",
      "2",
      "3",
      "5",
      "14",
      "10",
      "8",
      "6",
      "9",
      "4",
      "11",
      "13",
      "12",
      "10"
    ],
    "Latitude": 23.1148036,
    "Longitude": 72.5838711
  },
  {
    "HospitalName": "Mishra Multi Specialities Hospital Pvt Ltd",
    "Address": "Juran Chapra Road no-4",
    "City": "Muzaffarpur",
    "State": "Bihar",
    "Pincode": 842001,
    "Phone": 9117581911,
    "no": 6275,
    "TPAs": [
      "1",
      "2",
      "3",
      "5",
      "14",
      "10",
      "8",
      "6",
      "9",
      "4",
      "11",
      "13",
      "12",
      "10"
    ],
    "Latitude": 26.1295736,
    "Longitude": 85.3741702
  },
  {
    "HospitalName": "DIVYADRISHTI LASERS PRIVATE LIMITED ",
    "Address": "482, A/3 SADAR BAZAR, NEAR OLD RTO, SATARA",
    "City": "Satara",
    "State": "Maharashtra",
    "Pincode": 415001,
    "Phone": 9137913652,
    "no": 6276,
    "TPAs": [
      "1",
      "2",
      "3",
      "5",
      "14",
      "10",
      "8",
      "6",
      "9",
      "4",
      "11",
      "13",
      "12",
      "10"
    ],
    "Latitude": 17.688671,
    "Longitude": 74.005667
  },
  {
    "HospitalName": "ABHAY ORTHOPEDIC HOSPITAL ",
    "Address": "OPP.DUDHSAGAR DAIRY",
    "City": "Mehsana",
    "State": "Gujarat",
    "Pincode": 384002,
    "Phone": 244325,
    "no": 6277,
    "TPAs": [
      "1",
      "2",
      "3",
      "5",
      "14",
      "10",
      "8",
      "6",
      "9",
      "4",
      "11",
      "13",
      "12",
      "10"
    ],
    "Latitude": 23.611177,
    "Longitude": 72.3815104
  },
  {
    "HospitalName": "Aarogya Nidhi Hospital",
    "Address": "Aarogya Nidhi Hospital, plot 192,arwaliya,bairasia road,bhopal, Bhopal, Madhya Pradesh-462038",
    "City": "Bhopal",
    "State": "Madhya Pradesh",
    "Pincode": 462038,
    "Phone": 9752432582,
    "no": 6279,
    "TPAs": [
      "1",
      "2",
      "3",
      "5",
      "14",
      "10",
      "8",
      "6",
      "9",
      "4",
      "11",
      "13",
      "12",
      "10"
    ],
    "Latitude": 23.322956,
    "Longitude": 77.4036182
  },
  {
    "HospitalName": "Shreeji Multispeciality Hospital  ",
    "Address": "1st floor Sahjanad complex Near Evrest Cinema Cross Raod ",
    "City": "Ahmedabad",
    "State": "Gujarat",
    "Pincode": 380018,
    "Phone": 8128222220,
    "no": 6284,
    "TPAs": [
      "1",
      "2",
      "3",
      "5",
      "14",
      "10",
      "8",
      "6",
      "9",
      "4",
      "11",
      "13",
      "12",
      "10"
    ],
    "Latitude": 23.0134857,
    "Longitude": 72.52667439999999
  },
  {
    "HospitalName": "Dharmlok Hospital",
    "Address": "Adasrh colony Road",
    "City": "Katni",
    "State": "Madhya Pradesh",
    "Pincode": 483501,
    "Phone": 422390,
    "no": 6285,
    "TPAs": [
      "1",
      "2",
      "3",
      "5",
      "14",
      "10",
      "8",
      "6",
      "9",
      "4",
      "11",
      "13",
      "12",
      "10"
    ],
    "Latitude": 23.841271,
    "Longitude": 80.391871
  },
  {
    "HospitalName": "S. N. R Carnival Hospital",
    "Address": "A-9x/8CA Kalyani Station Road,Kalyani",
    "City": "Kalyani",
    "State": "West Bengal",
    "Pincode": 741235,
    "Phone": 8274059009,
    "no": 6287,
    "TPAs": [
      "1",
      "2",
      "3",
      "5",
      "14",
      "10",
      "8",
      "6",
      "9",
      "4",
      "11",
      "13",
      "12",
      "10"
    ],
    "Latitude": 22.9690371,
    "Longitude": 88.4652768
  },
  {
    "HospitalName": "SHREE DAYANANDA NURSING HOME",
    "Address": "Malavalli, opp. State bank of India",
    "City": "MANDYA",
    "State": "Karnataka",
    "Pincode": 571430,
    "Phone": 244306,
    "no": 6288,
    "TPAs": [
      "1",
      "2",
      "3",
      "5",
      "14",
      "10",
      "8",
      "6",
      "9",
      "4",
      "11",
      "13",
      "12",
      "10"
    ],
    "Latitude": 12.3856218,
    "Longitude": 77.05855919999999
  },
  {
    "HospitalName": "HARSHITHA MULTI SPECIALITY HOSPITALS",
    "Address": "D.No.6-3-984, 1ST CROSS, ",
    "City": "Anantapur",
    "State": "Andhra Pradesh",
    "Pincode": 515001,
    "Phone": 243422,
    "no": 6290,
    "TPAs": [
      "1",
      "2",
      "3",
      "5",
      "14",
      "10",
      "8",
      "6",
      "9",
      "4",
      "11",
      "13",
      "12",
      "10"
    ],
    "Latitude": 14.6755898,
    "Longitude": 77.6036087
  },
  {
    "HospitalName": "ARAVINDA SUPER SPECIALITY HOSPITAL",
    "Address": "1-8-34/1",
    "City": "WARANGAL",
    "State": "Telangana",
    "Pincode": 506001,
    "Phone": 9490801108,
    "no": 6291,
    "TPAs": [
      "1",
      "2",
      "3",
      "5",
      "14",
      "10",
      "8",
      "6",
      "9",
      "4",
      "11",
      "13",
      "12",
      "10"
    ],
    "Latitude": 17.9997819,
    "Longitude": 79.56230479999999
  },
  {
    "HospitalName": "Modi Eye Care Hospital and Retina Foundation",
    "Address": "FS- 03, First Floor, Madhav Plaza, ",
    "City": "Gwalior",
    "State": "Madhya Pradesh",
    "Pincode": 474009,
    "Phone": 4924640,
    "no": 6292,
    "TPAs": [
      "1",
      "2",
      "3",
      "5",
      "14",
      "10",
      "8",
      "6",
      "9",
      "4",
      "11",
      "13",
      "12",
      "10"
    ],
    "Latitude": 26.1985846,
    "Longitude": 78.1548009
  },
  {
    "HospitalName": "Shri Narayan Hospital ",
    "Address": "D-65 Paramhans Colony 80 Feet Road Murlipura, Jaipur",
    "City": "JAIPUR",
    "State": "Rajasthan",
    "Pincode": 302039,
    "Phone": 2236869,
    "no": 6294,
    "TPAs": [
      "1",
      "2",
      "3",
      "5",
      "14",
      "10",
      "8",
      "6",
      "9",
      "4",
      "11",
      "13",
      "12",
      "10"
    ],
    "Latitude": 26.9687231,
    "Longitude": 75.7664605
  },
  {
    "HospitalName": "ROHINI HOSPITAL",
    "Address": "CHAKIAR ROAD ",
    "City": "Cherupu",
    "State": "Kerala",
    "Pincode": 680561,
    "Phone": "0487-2343559, 0487-2345048",
    "no": 6295,
    "TPAs": [
      "1",
      "2",
      "3",
      "5",
      "14",
      "10",
      "8",
      "6",
      "9",
      "4",
      "11",
      "13",
      "12",
      "10"
    ],
    "Latitude": 10.4422772,
    "Longitude": 76.2100324
  },
  {
    "HospitalName": "Prime Hospital & Research centre",
    "Address": "105-A Main Road",
    "City": "Dewas",
    "State": "Madhya Pradesh",
    "Pincode": 455001,
    "Phone": 400060,
    "no": 6296,
    "TPAs": [
      "1",
      "2",
      "3",
      "5",
      "14",
      "10",
      "8",
      "6",
      "9",
      "4",
      "11",
      "13",
      "12",
      "10"
    ],
    "Latitude": 22.9675929,
    "Longitude": 76.0534454
  },
  {
    "HospitalName": "VENKATESWARA NURSING HOME",
    "Address": "Door No: 12-01-4/1, Railway Station Road, Prakash Nagar, Narasaraopet, Guntur Dt, Andhra Pradesh-522601",
    "City": "Guntur",
    "State": "Andhra Pradesh",
    "Pincode": 522601,
    "Phone": 230543,
    "no": 6297,
    "TPAs": [
      "1",
      "2",
      "3",
      "5",
      "14",
      "10",
      "8",
      "6",
      "9",
      "4",
      "11",
      "13",
      "12",
      "10"
    ],
    "Latitude": 16.2323868,
    "Longitude": 80.052309
  },
  {
    "HospitalName": "V.B HOSPITAL",
    "Address": "16-5-310, PERUKAWADA, WARANGAL, TELANGANA",
    "City": "WARANGAL",
    "State": "Telangana",
    "Pincode": 506002,
    "Phone": "0870-2436446",
    "no": 6298,
    "TPAs": [
      "1",
      "2",
      "3",
      "5",
      "14",
      "10",
      "8",
      "6",
      "9",
      "4",
      "11",
      "13",
      "12",
      "10"
    ],
    "Latitude": 17.9708097,
    "Longitude": 79.5985412
  },
  {
    "HospitalName": "Priya Maternity And Nursing Home Pvt Ltd",
    "Address": "B-1/5, Gulab Bagh, Sigra",
    "City": "Varanasi",
    "State": "uttar pradesh",
    "Pincode": 221001,
    "Phone": "0542 24005153",
    "no": 6300,
    "TPAs": [
      "1",
      "2",
      "3",
      "5",
      "14",
      "10",
      "8",
      "6",
      "9",
      "4",
      "11",
      "13",
      "12",
      "10"
    ],
    "Latitude": 25.3188246,
    "Longitude": 82.9920235
  },
  {
    "HospitalName": "Royal Children Hospital",
    "Address": "2nd Floor, Radha Krishna Sankul , Karnik Road, Kalyan",
    "City": "Thane",
    "State": "Maharashtra",
    "Pincode": 421301,
    "Phone": 2221222,
    "no": 6301,
    "TPAs": [
      "1",
      "2",
      "3",
      "5",
      "14",
      "10",
      "8",
      "6",
      "9",
      "4",
      "11",
      "13",
      "12",
      "10"
    ],
    "Latitude": 19.240616,
    "Longitude": 73.1404908
  },
  {
    "HospitalName": "THE PAYYANNUR EYE FOUNDATION ",
    "Address": "MUKUNDA HOSPITAL BUILDING.MAIN ROAD PAYYANNUR KANNUR  KERALA",
    "City": "Payyannur",
    "State": "Kerala",
    "Pincode": 670307,
    "Phone": 202031,
    "no": 6303,
    "TPAs": [
      "1",
      "2",
      "3",
      "5",
      "14",
      "10",
      "8",
      "6",
      "9",
      "4",
      "11",
      "13",
      "12",
      "10"
    ],
    "Latitude": 12.108172,
    "Longitude": 75.2131289
  },
  {
    "HospitalName": "J.K.MEDICARE & DIABETES CENTRE",
    "Address": "PATHIYACKAL BUILDINGK.K.ROAD VADAVATHOOR P.O.KOTTAYAM-686 010",
    "City": "KOTTAYAM",
    "State": "Kerala",
    "Pincode": 686010,
    "Phone": 2576999,
    "no": 6304,
    "TPAs": [
      "1",
      "2",
      "3",
      "5",
      "14",
      "10",
      "8",
      "6",
      "9",
      "4",
      "11",
      "13",
      "12",
      "10"
    ],
    "Latitude": 9.5911102,
    "Longitude": 76.5609997
  },
  {
    "HospitalName": "Vaidehi Women\u2019s & Children Hospital ",
    "Address": "105-112, Shashvat Mahadev-1 Complex, RTO Road",
    "City": "Ahmedabad",
    "State": "Gujarat",
    "Pincode": 382418,
    "Phone": 9662925050,
    "no": 6309,
    "TPAs": [
      "1",
      "2",
      "3",
      "5",
      "14",
      "10",
      "8",
      "6",
      "9",
      "4",
      "11",
      "13",
      "12",
      "10"
    ],
    "Latitude": 22.9935341,
    "Longitude": 72.6524281
  },
  {
    "HospitalName": "AHALIA DIABETES HOSPITAL ",
    "Address": "AHALIA CAMPUS",
    "City": "Palakkad",
    "State": "Kerala",
    "Pincode": 678557,
    "Phone": 225555,
    "no": 6310,
    "TPAs": [
      "1",
      "2",
      "3",
      "5",
      "14",
      "10",
      "8",
      "6",
      "9",
      "4",
      "11",
      "13",
      "12",
      "10"
    ],
    "Latitude": 10.7920591,
    "Longitude": 76.8274972
  },
  {
    "HospitalName": "MERRYLAND WOMEN'S HOSPITAL ",
    "Address": "3RD FLOOR,DREAM SQUARE",
    "City": "Ahmedabad",
    "State": "Gujarat",
    "Pincode": 380013,
    "Phone": 9825548153,
    "no": 6311,
    "TPAs": [
      "1",
      "2",
      "3",
      "5",
      "14",
      "10",
      "8",
      "6",
      "9",
      "4",
      "11",
      "13",
      "12",
      "10"
    ],
    "Latitude": 23.0708593,
    "Longitude": 72.55981
  },
  {
    "HospitalName": "Gahlaut Health Care Private Limited",
    "Address": "C-13, New Azad Nagar, Infront Of kalyanpur Thana, Kalyanpur, behind Petrol Pump, Kanpur, Uttar Pradesh 208017",
    "City": "Kanpur",
    "State": "Uttar Pradesh",
    "Pincode": 208107,
    "Phone": 2570373,
    "no": 6314,
    "TPAs": [
      "1",
      "2",
      "3",
      "5",
      "14",
      "10",
      "8",
      "6",
      "9",
      "4",
      "11",
      "13",
      "12",
      "10"
    ],
    "Latitude": 26.5001278,
    "Longitude": 80.25743550000001
  },
  {
    "HospitalName": "The Christian Mission Hospital",
    "Address": "129 EAST VELI STREET,MADURAI-625001",
    "City": "Madurai",
    "State": "Tamil Nadu",
    "Pincode": 625001,
    "Phone": "2331164,  2326458",
    "no": 6315,
    "TPAs": [
      "1",
      "2",
      "3",
      "5",
      "14",
      "10",
      "8",
      "6",
      "9",
      "4",
      "11",
      "13",
      "12",
      "10"
    ],
    "Latitude": 9.9159084,
    "Longitude": 78.1256169
  },
  {
    "HospitalName": "Sara Gastro & Laparoscopic Hospital(A unit of Khetri Hospital Pvt Ltd)",
    "Address": "PlotNo C-21 Near BJB College Arts Block,BJB Nagar,",
    "City": "Bhubaneswar",
    "State": "Odisha",
    "Pincode": 751014,
    "Phone": 9090961601,
    "no": 6318,
    "TPAs": [
      "1",
      "2",
      "3",
      "5",
      "14",
      "10",
      "8",
      "6",
      "9",
      "4",
      "11",
      "13",
      "12",
      "10"
    ],
    "Latitude": 20.3010566,
    "Longitude": 85.84002550000001
  },
  {
    "HospitalName": "PUDUGAI STAR HOSPITAL PVT LTD",
    "Address": "NO:50-51, RAMACHANDRA NAGAR",
    "City": "Pudukkottai",
    "State": "Tamil Nadu",
    "Pincode": 622001,
    "Phone": 267676,
    "no": 6321,
    "TPAs": [
      "1",
      "2",
      "3",
      "5",
      "14",
      "10",
      "8",
      "6",
      "9",
      "4",
      "11",
      "13",
      "12",
      "10"
    ],
    "Latitude": 10.3722393,
    "Longitude": 78.831922
  },
  {
    "HospitalName": "GAYATRI HOSPITAL AND RESEARCH CENTER",
    "Address": "2 ND FLOOR NIDHI COMPLEX, OPP. MEHSANA SOCIETY, NAVA VADAJ, AHMEDABAD",
    "City": "Ahmedabad",
    "State": "Gujarat",
    "Pincode": 380013,
    "Phone": 27643337,
    "no": 6322,
    "TPAs": [
      "1",
      "2",
      "3",
      "5",
      "14",
      "10",
      "8",
      "6",
      "9",
      "4",
      "11",
      "13",
      "12",
      "10"
    ],
    "Latitude": 23.0575259,
    "Longitude": 72.57057
  },
  {
    "HospitalName": "HOPE SPINE AND JOINT CLINIC ",
    "Address": "1ST FLOOR, KRISHNA ARCADE",
    "City": "Mehsana",
    "State": "Gujarat",
    "Pincode": 384002,
    "Phone": 7874997979,
    "no": 6327,
    "TPAs": [
      "1",
      "2",
      "3",
      "5",
      "14",
      "10",
      "8",
      "6",
      "9",
      "4",
      "11",
      "13",
      "12",
      "10"
    ],
    "Latitude": 23.6037831,
    "Longitude": 72.3797074
  },
  {
    "HospitalName": "SRI ANNAI HOSPITAL",
    "Address": "NO,5 C NARASHIMMA ACHARI STREEET",
    "City": "Dharmapuri",
    "State": "Tamil Nadu",
    "Pincode": 636701,
    "Phone": 262738,
    "no": 6328,
    "TPAs": [
      "1",
      "2",
      "3",
      "5",
      "14",
      "10",
      "8",
      "6",
      "9",
      "4",
      "11",
      "13",
      "12",
      "10"
    ],
    "Latitude": 12.1302318,
    "Longitude": 78.16148489999999
  },
  {
    "HospitalName": "G.V.JAYAM MULTI SUPER SPECIALITY CENTRE",
    "Address": "323-1/140, PUTHU MARIYAMMAN KOVIL STREET, VEERANAM MAIN ROAD, SALEM 636003",
    "City": "Salem",
    "State": "Tamil Nadu",
    "Pincode": 636003,
    "Phone": 2296056,
    "no": 6329,
    "TPAs": [
      "1",
      "2",
      "3",
      "5",
      "14",
      "10",
      "8",
      "6",
      "9",
      "4",
      "11",
      "13",
      "12",
      "10"
    ],
    "Latitude": 11.6684576,
    "Longitude": 78.181027
  },
  {
    "HospitalName": "Tridev Hospital",
    "Address": "Near Bajla Chowk",
    "City": "Deoghar",
    "State": "Jharkhand",
    "Pincode": 814112,
    "Phone": "6204957365/9661530138",
    "no": 6331,
    "TPAs": [
      "1",
      "2",
      "3",
      "5",
      "14",
      "10",
      "8",
      "6",
      "9",
      "4",
      "11",
      "13",
      "12",
      "10"
    ],
    "Latitude": 24.4854934,
    "Longitude": 86.6963784
  },
  {
    "HospitalName": "Anup Institute of Orthopaedics & Rehabilitation",
    "Address": "G-75-77 P.C.Colony, Kankarbagh",
    "City": "Patna",
    "State": "Bihar",
    "Pincode": 800020,
    "Phone": "06122368881/2354130",
    "no": 6332,
    "TPAs": [
      "1",
      "2",
      "3",
      "5",
      "14",
      "10",
      "8",
      "6",
      "9",
      "4",
      "11",
      "13",
      "12",
      "10"
    ],
    "Latitude": 25.6011169,
    "Longitude": 85.15701770000001
  },
  {
    "HospitalName": "EYENOVA EYE  HOSPITAL",
    "Address": " Stadium Rd, Delapeer, Ekta Nagar, Bareilly, Uttar Pradesh 243122",
    "City": "Bareilly",
    "State": "Uttar Pradesh",
    "Pincode": 243122,
    "Phone": 8755526889,
    "no": 6335,
    "TPAs": [
      "1",
      "2",
      "3",
      "5",
      "14",
      "10",
      "8",
      "6",
      "9",
      "4",
      "11",
      "13",
      "12",
      "10"
    ],
    "Latitude": 28.384452,
    "Longitude": 79.43531899999999
  },
  {
    "HospitalName": "Horizon Health Hospital",
    "Address": "1st Floor Narayan Chember Bhekrai nagar Fursungi ",
    "City": "Pune",
    "State": "Maharashtra",
    "Pincode": 412308,
    "Phone": 9132759132,
    "no": 6338,
    "TPAs": [
      "1",
      "2",
      "3",
      "5",
      "14",
      "10",
      "8",
      "6",
      "9",
      "4",
      "11",
      "13",
      "12",
      "10"
    ],
    "Latitude": 18.4809614,
    "Longitude": 73.9534852
  },
  {
    "HospitalName": "NEYANI EYE HOSPITAL",
    "Address": "1ST FLOOR, AMAN COMPLAEX, PLOT NO. 510-11, KUTCH KALA ROAD",
    "City": "Gandhidham",
    "State": "Gujarat",
    "Pincode": 370201,
    "Phone": 229565,
    "no": 6339,
    "TPAs": [
      "1",
      "2",
      "3",
      "5",
      "14",
      "10",
      "8",
      "6",
      "9",
      "4",
      "11",
      "13",
      "12",
      "10"
    ],
    "Latitude": 23.0674294,
    "Longitude": 70.13144419999999
  },
  {
    "HospitalName": "ASHA HOSPITAL & I.C.C.U",
    "Address": "ASIATIC SOCIETY, PLOT NO 134,",
    "City": "Navi Mumbai",
    "State": "Maharashtra",
    "Pincode": 400708,
    "Phone": 27790784,
    "no": 6343,
    "TPAs": [
      "1",
      "2",
      "3",
      "5",
      "14",
      "10",
      "8",
      "6",
      "9",
      "4",
      "11",
      "13",
      "12",
      "10"
    ],
    "Latitude": 19.0330488,
    "Longitude": 73.0296625
  },
  {
    "HospitalName": "PATWARDHAN HOSPITAL LLP",
    "Address": "BANSILAL NAGAR AURANGABD",
    "City": "Aurangabad",
    "State": "Maharashtra",
    "Pincode": 431011,
    "Phone": 8087618780,
    "no": 6344,
    "TPAs": [
      "1",
      "2",
      "3",
      "5",
      "14",
      "10",
      "8",
      "6",
      "9",
      "4",
      "11",
      "13",
      "12",
      "10"
    ],
    "Latitude": 19.865738,
    "Longitude": 75.3175689
  },
  {
    "HospitalName": "Edappal Hospitals Pvt. Ltd",
    "Address": "PO EdappalMalappuram dt, KeralaPIN - 679576",
    "City": "Edappal",
    "State": "Kerala",
    "Pincode": 679576,
    "Phone": 2660219200,
    "no": 6345,
    "TPAs": [
      "1",
      "2",
      "3",
      "5",
      "14",
      "10",
      "8",
      "6",
      "9",
      "4",
      "11",
      "13",
      "12",
      "10"
    ],
    "Latitude": 10.782446,
    "Longitude": 76.0108389
  },
  {
    "HospitalName": "WAVHAL CHILDRENS HOSPITAL",
    "Address": "A/P SHIKRAPUR ,PABAL CHOWK ,NEAR BY ECOGRAM ROAD",
    "City": "Pune",
    "State": "Maharashtra",
    "Pincode": 412208,
    "Phone": 9730360477,
    "no": 6347,
    "TPAs": [
      "1",
      "2",
      "3",
      "5",
      "14",
      "10",
      "8",
      "6",
      "9",
      "4",
      "11",
      "13",
      "12",
      "10"
    ],
    "Latitude": 18.5246091,
    "Longitude": 73.8786239
  },
  {
    "HospitalName": "Trinetra Super Speciality Eye Hospital",
    "Address": "1st floor , wasvani plaza ",
    "City": "Ujjain",
    "State": "Madhya Pradesh",
    "Pincode": 456010,
    "Phone": "2511366 / 9479313773",
    "no": 6348,
    "TPAs": [
      "1",
      "2",
      "3",
      "5",
      "14",
      "10",
      "8",
      "6",
      "9",
      "4",
      "11",
      "13",
      "12",
      "10"
    ],
    "Latitude": 23.1773383,
    "Longitude": 75.7892421
  },
  {
    "HospitalName": "NIMAI CHILDREN HOSPITAL",
    "Address": "\"ANTARDVIP\" PLOT NO 2 & 3, N9, M2 ROAD",
    "City": "Aurangabad",
    "State": "Maharashtra",
    "Pincode": 431002,
    "Phone": 2390466,
    "no": 6349,
    "TPAs": [
      "1",
      "2",
      "3",
      "5",
      "14",
      "10",
      "8",
      "6",
      "9",
      "4",
      "11",
      "13",
      "12",
      "10"
    ],
    "Latitude": 19.9008015,
    "Longitude": 75.3563233
  },
  {
    "HospitalName": "More Hospital & I.C.U",
    "Address": "More Hospital & I.C.U, A-101,Shree sai shradha society,plot no-12,sector-17,khanda colony signal,new panvel (w) navi mumbai, Navi Mumbai, Maharashtra-410206",
    "City": "Navi Mumbai",
    "State": "Maharashtra",
    "Pincode": 410206,
    "Phone": 9222699699,
    "no": 6351,
    "TPAs": [
      "1",
      "2",
      "3",
      "5",
      "14",
      "10",
      "8",
      "6",
      "9",
      "4",
      "11",
      "13",
      "12",
      "10"
    ],
    "Latitude": 19.006568,
    "Longitude": 73.106562
  },
  {
    "HospitalName": "Dr. Aaphale Eye Hospital",
    "Address": "B-Wing,2nd floor,Thakkar House",
    "City": "Thane",
    "State": "Maharashtra",
    "Pincode": 400601,
    "Phone": 25474995,
    "no": 6354,
    "TPAs": [
      "1",
      "2",
      "3",
      "5",
      "14",
      "10",
      "8",
      "6",
      "9",
      "4",
      "11",
      "13",
      "12",
      "10"
    ],
    "Latitude": 19.2055503,
    "Longitude": 72.97745929999999
  },
  {
    "HospitalName": "Aparant Healthcare & Allied Services Pvt. Ltd.",
    "Address": "Savitri Enclave Opp. LIC Office, Above Kings Super Market, Bhogale, Chiplun",
    "City": "Chiplun",
    "State": "Maharashtra",
    "Pincode": 415605,
    "Phone": "254254/254245",
    "no": 6355,
    "TPAs": [
      "1",
      "2",
      "3",
      "5",
      "14",
      "10",
      "8",
      "6",
      "9",
      "4",
      "11",
      "13",
      "12",
      "10"
    ],
    "Latitude": 17.5319037,
    "Longitude": 73.5151341
  },
  {
    "HospitalName": "KAMALA SPECIALITY HOSPITALS PVT LTD",
    "Address": " 46 & 48 , Santhaipettai Street , Kovilpatti",
    "City": "Kovilpatti",
    "State": "Tamil Nadu",
    "Pincode": 628502,
    "Phone": "222077, 230486",
    "no": 6356,
    "TPAs": [
      "1",
      "2",
      "3",
      "5",
      "14",
      "10",
      "8",
      "6",
      "9",
      "4",
      "11",
      "13",
      "12",
      "10"
    ],
    "Latitude": 9.1740174,
    "Longitude": 77.8666487
  },
  {
    "HospitalName": "Mata Laxmi Nursing Home",
    "Address": "A-1 Near tv tower Anupam nagar, Shankar Nagar",
    "City": "Raipur",
    "State": "Chattisgarh",
    "Pincode": 492001,
    "Phone": 4052967,
    "no": 6358,
    "TPAs": [
      "1",
      "2",
      "3",
      "5",
      "14",
      "10",
      "8",
      "6",
      "9",
      "4",
      "11",
      "13",
      "12",
      "10"
    ],
    "Latitude": 21.2554401,
    "Longitude": 81.6648702
  },
  {
    "HospitalName": " Nuha Nursing Home",
    "Address": "D. NO 12-19-61&62 Old bank, Road, Kothapeta, Guntur, Andhra Pradesh 522001",
    "City": "Guntur",
    "State": "Andhra Pradesh",
    "Pincode": 500025,
    "Phone": 2265559,
    "no": 6359,
    "TPAs": [
      "1",
      "2",
      "3",
      "5",
      "14",
      "10",
      "8",
      "6",
      "9",
      "4",
      "11",
      "13",
      "12",
      "10"
    ],
    "Latitude": 16.2972768,
    "Longitude": 80.4511918
  },
  {
    "HospitalName": "Kanha Maternity And Child Care Hospital",
    "Address": " TH-17 AKASH GANGA COLONY E-8 SHAHPURE TRILANGA ROAD NEAR MAKHANLAL CHATURVEDI UNIVERSITY, Bhopal, Madhya Pradesh-",
    "City": "Bhopal",
    "State": "Madhya Pradesh",
    "Pincode": 462046,
    "Phone": 4092888,
    "no": 6364,
    "TPAs": [
      "1",
      "2",
      "3",
      "5",
      "14",
      "10",
      "8",
      "6",
      "9",
      "4",
      "11",
      "13",
      "12",
      "10"
    ],
    "Latitude": 23.1960188,
    "Longitude": 77.43459849999999
  },
  {
    "HospitalName": "Shree Siddhivinayak Hospital And Tanishka Polyclinic",
    "Address": " B-08, Prassanna Park Hsg Soc, ",
    "City": "Thane",
    "State": "Maharashtra",
    "Pincode": 401105,
    "Phone": 28174756,
    "no": 6369,
    "TPAs": [
      "1",
      "2",
      "3",
      "5",
      "14",
      "10",
      "8",
      "6",
      "9",
      "4",
      "11",
      "13",
      "12",
      "10"
    ],
    "Latitude": 19.1054685,
    "Longitude": 73.00462399999999
  },
  {
    "HospitalName": "Banaras MediCity Heart And Superspeciality Hospital",
    "Address": "D-59/32-A1, Sigra, Mahmoorganj, VARANASI",
    "City": "Varanasi",
    "State": "UTTAR PRADESH",
    "Pincode": 221010,
    "Phone": 9839075600,
    "no": 6370,
    "TPAs": [
      "1",
      "2",
      "3",
      "5",
      "14",
      "10",
      "8",
      "6",
      "9",
      "4",
      "11",
      "13",
      "12",
      "10"
    ],
    "Latitude": 25.3104409,
    "Longitude": 82.9894298
  },
  {
    "HospitalName": "AYUR HOSPITAL",
    "Address": "SHANESHWAR COMPLEX , Kalyan",
    "City": "Thane",
    "State": "Maharashtra",
    "Pincode": 421306,
    "Phone": 9987793888,
    "no": 6371,
    "TPAs": [
      "1",
      "2",
      "3",
      "5",
      "14",
      "10",
      "8",
      "6",
      "9",
      "4",
      "11",
      "13",
      "12",
      "10"
    ],
    "Latitude": 19.2146614,
    "Longitude": 73.1413839
  },
  {
    "HospitalName": "GLOBAL LIFE CARE",
    "Address": "Labheshwar Complex, NR KARUR VYSYA BANK,",
    "City": "Bharuch",
    "State": "Gujarat",
    "Pincode": 392011,
    "Phone": 9316411980,
    "no": 6373,
    "TPAs": [
      "1",
      "2",
      "3",
      "5",
      "14",
      "10",
      "8",
      "6",
      "9",
      "4",
      "11",
      "13",
      "12",
      "10"
    ],
    "Latitude": 21.7147851,
    "Longitude": 73.0174861
  },
  {
    "HospitalName": "NARAYAN SPINE HOSPITAL",
    "Address": "201-204 TRISHA SQUARE-2 JETALPUR ROAD ALKAPURI VADODARA",
    "City": "Vadodara",
    "State": "Gujarat",
    "Pincode": 390007,
    "Phone": 2310221,
    "no": 6374,
    "TPAs": [
      "1",
      "2",
      "3",
      "5",
      "14",
      "10",
      "8",
      "6",
      "9",
      "4",
      "11",
      "13",
      "12",
      "10"
    ],
    "Latitude": 22.3077281,
    "Longitude": 73.175389
  },
  {
    "HospitalName": "DR.BHUMIKA PATEL'S WOMENS HOSPITAL",
    "Address": "COMMERCIAL COMPLEX, 2 ND FLOOR, GANESH PLAZA",
    "City": "Ankleshwar",
    "State": "Gujarat",
    "Pincode": 393002,
    "Phone": 7284987073,
    "no": 6375,
    "TPAs": [
      "1",
      "2",
      "3",
      "5",
      "14",
      "10",
      "8",
      "6",
      "9",
      "4",
      "11",
      "13",
      "12",
      "10"
    ],
    "Latitude": 21.6069757,
    "Longitude": 73.023819
  },
  {
    "HospitalName": "MEDIHELP HOSPITAL",
    "Address": "Model Town, Sarvodaya Nagar, Kanpur, Uttar Pradesh 208005",
    "City": "Kanpur",
    "State": "Uttar Pradesh",
    "Pincode": 208005,
    "Phone": 5122502626,
    "no": 6376,
    "TPAs": [
      "1",
      "2",
      "3",
      "5",
      "14",
      "10",
      "8",
      "6",
      "9",
      "4",
      "11",
      "13",
      "12",
      "10"
    ],
    "Latitude": 26.4793314,
    "Longitude": 80.2978492
  },
  {
    "HospitalName": "LOTUS MULTISPECIALTY HOSPITAL",
    "Address": "NEAR YASHWANTRAO CHAAN NATYAGHRUHA BEED ",
    "City": "Beed",
    "State": "Maharashtra",
    "Pincode": 431122,
    "Phone": 9881708786,
    "no": 6377,
    "TPAs": [
      "1",
      "2",
      "3",
      "5",
      "14",
      "10",
      "8",
      "6",
      "9",
      "4",
      "11",
      "13",
      "12",
      "10"
    ],
    "Latitude": 18.9875471,
    "Longitude": 75.7455744
  },
  {
    "HospitalName": "SHINDE HOSPITAL",
    "Address": "NEAR WAI URBAN BANK MAHATMA PHULE CHOWK",
    "City": "Pune",
    "State": "Maharashtra",
    "Pincode": 410501,
    "Phone": 7972585540,
    "no": 6378,
    "TPAs": [
      "1",
      "2",
      "3",
      "5",
      "14",
      "10",
      "8",
      "6",
      "9",
      "4",
      "11",
      "13",
      "12",
      "10"
    ],
    "Latitude": 18.6140289,
    "Longitude": 73.7667641
  },
  {
    "HospitalName": "MAHATHMA GANDHI SUPER SPECIALITY HOSPITALS",
    "Address": "41136,",
    "City": "Guntur",
    "State": "Andhra Pradesh",
    "Pincode": 522601,
    "Phone": 230007,
    "no": 6379,
    "TPAs": [
      "1",
      "2",
      "3",
      "5",
      "14",
      "10",
      "8",
      "6",
      "9",
      "4",
      "11",
      "13",
      "12",
      "10"
    ],
    "Latitude": 16.2347098,
    "Longitude": 80.056679
  },
  {
    "HospitalName": "SREE NETHRA ENT & EYE CARE HOSPITAL",
    "Address": "D.No.12-3-8, Sree Leela palace, 3rd cross",
    "City": "Anantapur",
    "State": "Andhra Pradesh",
    "Pincode": 505001,
    "Phone": 241133,
    "no": 6380,
    "TPAs": [
      "1",
      "2",
      "3",
      "5",
      "14",
      "10",
      "8",
      "6",
      "9",
      "4",
      "11",
      "13",
      "12",
      "10"
    ],
    "Latitude": 14.6742497,
    "Longitude": 77.60225249999999
  },
  {
    "HospitalName": "SUN EYE HOSPITAL  AND LASER CENTRE PVT LTD",
    "Address": "57-B, Kanpur - Lucknow Rd, Singar Nagar, Alambagh, Lucknow, Uttar Pradesh 226005",
    "City": "Lucknow",
    "State": "Uttar Pradesh",
    "Pincode": 226005,
    "Phone": 4062684,
    "no": 6381,
    "TPAs": [
      "1",
      "2",
      "3",
      "5",
      "14",
      "10",
      "8",
      "6",
      "9",
      "4",
      "11",
      "13",
      "12",
      "10"
    ],
    "Latitude": 26.8068869,
    "Longitude": 80.8959675
  },
  {
    "HospitalName": "HUDA TRUST HOSPITAL",
    "Address": "KUMARAPURAM P O, HARIPAD",
    "City": "HARIPAD",
    "State": "Kerala",
    "Pincode": 690548,
    "Phone": 2404466,
    "no": 6382,
    "TPAs": [
      "1",
      "2",
      "3",
      "5",
      "14",
      "10",
      "8",
      "6",
      "9",
      "4",
      "11",
      "13",
      "12",
      "10"
    ],
    "Latitude": 9.2830734,
    "Longitude": 76.4426544
  },
  {
    "HospitalName": "PEOPLES GENERAL HOSPITAL",
    "Address": "HITECH-6 MALVIYA NAGAR BHOPAL-3",
    "City": "Bhopal",
    "State": "Madhya Pradesh",
    "Pincode": 462003,
    "Phone": 7552764407,
    "no": 6383,
    "TPAs": [
      "1",
      "2",
      "3",
      "5",
      "14",
      "10",
      "8",
      "6",
      "9",
      "4",
      "11",
      "13",
      "12",
      "10"
    ],
    "Latitude": 23.240311,
    "Longitude": 77.4054603
  },
  {
    "HospitalName": "AARADHYA NETRALAYA",
    "Address": "1ST FLOOR , HARI APPT PUNE SOLAPUR ROAD, GADITAL",
    "City": "PUNE",
    "State": "Maharashtra",
    "Pincode": 411028,
    "Phone": 26995599,
    "no": 6387,
    "TPAs": [
      "1",
      "2",
      "3",
      "5",
      "14",
      "10",
      "8",
      "6",
      "9",
      "4",
      "11",
      "13",
      "12",
      "10"
    ],
    "Latitude": 18.5005881,
    "Longitude": 73.9423475
  },
  {
    "HospitalName": "Surya Eye Institute & Research Centre",
    "Address": "104, Aroto House, P K Road, Near Mulund Telephone Exchange, Mulund, Mumbai - 80",
    "City": "Mumbai",
    "State": "Maharashtra",
    "Pincode": 400080,
    "Phone": 25907733,
    "no": 6388,
    "TPAs": [
      "1",
      "2",
      "3",
      "5",
      "14",
      "10",
      "8",
      "6",
      "9",
      "4",
      "11",
      "13",
      "12",
      "10"
    ],
    "Latitude": 19.1685336,
    "Longitude": 72.9449953
  },
  {
    "HospitalName": "Bubm Nursing Home",
    "Address": "1 floor Satyam Arched ",
    "City": "Pune ",
    "State": "Maharashtra",
    "Pincode": 411014,
    "Phone": 2026630419,
    "no": 6391,
    "TPAs": [
      "1",
      "2",
      "3",
      "5",
      "14",
      "10",
      "8",
      "6",
      "9",
      "4",
      "11",
      "13",
      "12",
      "10"
    ],
    "Latitude": 18.5577384,
    "Longitude": 73.90896719999999
  },
  {
    "HospitalName": "FEMIINT HEALTH(A UNIT OF CHAITHANYA INTEGRATED HEALTHCARE LTD)",
    "Address": "#34. NEXT TO FORUM VALUE MALL",
    "City": "BENGALURU",
    "State": "Karnataka",
    "Pincode": 560066,
    "Phone": 49321111,
    "no": 6392,
    "TPAs": [
      "1",
      "2",
      "3",
      "5",
      "14",
      "10",
      "8",
      "6",
      "9",
      "4",
      "11",
      "13",
      "12",
      "10"
    ],
    "Latitude": 12.958978,
    "Longitude": 77.7467224
  },
  {
    "HospitalName": "SEVENHILLS MULTISPECIALITY HOSPITAL",
    "Address": "#2-429 BALAJI COMPLEX OPP :- PRATAP THATRE",
    "City": "NANDYAL",
    "State": "Andhra Pradesh",
    "Pincode": 518501,
    "Phone": 243585,
    "no": 6393,
    "TPAs": [
      "1",
      "2",
      "3",
      "5",
      "14",
      "10",
      "8",
      "6",
      "9",
      "4",
      "11",
      "13",
      "12",
      "10"
    ],
    "Latitude": 15.4860787,
    "Longitude": 78.4873329
  },
  {
    "HospitalName": "SRI RAGHAVENDRA KIDNEY URO CARE CENTRE ",
    "Address": "H No.5-7-34 & 35, KHALEEL WADI , NIZAMBAD",
    "City": "Nizamabad",
    "State": "Telangana",
    "Pincode": 503003,
    "Phone": 9849246615,
    "no": 6397,
    "TPAs": [
      "1",
      "2",
      "3",
      "5",
      "14",
      "10",
      "8",
      "6",
      "9",
      "4",
      "11",
      "13",
      "12",
      "10"
    ],
    "Latitude": 18.6741251,
    "Longitude": 78.102346
  },
  {
    "HospitalName": "JAYARAM HOSPITAL VASAVI NURSING HOME",
    "Address": "7-2-498, Mankamma Thota, Karimnagar, Telangana ",
    "City": "KARIMNAGAR",
    "State": "Telangana",
    "Pincode": 505001,
    "Phone": 9849529800,
    "no": 6399,
    "TPAs": [
      "1",
      "2",
      "3",
      "5",
      "14",
      "10",
      "8",
      "6",
      "9",
      "4",
      "11",
      "13",
      "12",
      "10"
    ],
    "Latitude": 18.4387166,
    "Longitude": 79.1146875
  },
  {
    "HospitalName": "RANA HOSPITAL PVT LTD",
    "Address": "Rail Vihar, Medical College Road, Chargawa,, Gorakhpur, Uttar Pradesh 273004",
    "City": "Gorakhpur",
    "State": "Uttar Pradesh",
    "Pincode": 273004,
    "Phone": 7565964488,
    "no": 6400,
    "TPAs": [
      "1",
      "2",
      "3",
      "5",
      "14",
      "10",
      "8",
      "6",
      "9",
      "4",
      "11",
      "13",
      "12",
      "10"
    ],
    "Latitude": 26.8047749,
    "Longitude": 83.39040969999999
  },
  {
    "HospitalName": "MAATHA CHILDRENS HOSPITAL",
    "Address": "H.No.1-61, Indira Nagar, Opp.TTD Kalyana",
    "City": "MANCHERIAL",
    "State": "Andhra Pradesh",
    "Pincode": 504208,
    "Phone": 252108,
    "no": 6401,
    "TPAs": [
      "1",
      "2",
      "3",
      "5",
      "14",
      "10",
      "8",
      "6",
      "9",
      "4",
      "11",
      "13",
      "12",
      "10"
    ],
    "Latitude": 15.827318,
    "Longitude": 78.03039299999999
  },
  {
    "HospitalName": "Ratan Hospital for Women & Child(Unit of Ruban Patliputra hospital Pvt.Ltd)",
    "Address": "South Gandhi Maidan,Near IM Building",
    "City": "Patna",
    "State": "Bihar",
    "Pincode": 800001,
    "Phone": "2325404/2325446",
    "no": 6402,
    "TPAs": [
      "1",
      "2",
      "3",
      "5",
      "14",
      "10",
      "8",
      "6",
      "9",
      "4",
      "11",
      "13",
      "12",
      "10"
    ],
    "Latitude": 25.6147767,
    "Longitude": 85.1438726
  },
  {
    "HospitalName": "SAMRAKSHA MULTI SPECIALITY HOSPITAL",
    "Address": "H No.6-88, DEVARAKONDA ROAD, NALGONDA",
    "City": "NALGONDA",
    "State": "Telangana",
    "Pincode": 508001,
    "Phone": 9703686080,
    "no": 6404,
    "TPAs": [
      "1",
      "2",
      "3",
      "5",
      "14",
      "10",
      "8",
      "6",
      "9",
      "4",
      "11",
      "13",
      "12",
      "10"
    ],
    "Latitude": 16.6934118,
    "Longitude": 78.9206801
  },
  {
    "HospitalName": "DIVINE SUPERSPECIALITY HOSPITAL AND TRAUMA CENTER",
    "Address": "MORWADI MIDC ROAD PIMPRI PUNE",
    "City": "PUNE",
    "State": "MAHARASHTRA",
    "Pincode": 411018,
    "Phone": 9810177091,
    "no": 6406,
    "TPAs": [
      "1",
      "2",
      "3",
      "5",
      "14",
      "10",
      "8",
      "6",
      "9",
      "4",
      "11",
      "13",
      "12",
      "10"
    ],
    "Latitude": 18.6341166,
    "Longitude": 73.8032575
  },
  {
    "HospitalName": "SHRI KRISHNA NEUROSPINE AND MULTISPECIALITY HOSPITAL",
    "Address": "1-D-80, Sector 1, Jai Narayan Vyas Colony, Bikaner, Rajasthan 334004",
    "City": "BIKANER",
    "State": "RAJASTHAN",
    "Pincode": 334004,
    "Phone": "0151-2230924",
    "no": 6407,
    "TPAs": [
      "1",
      "2",
      "3",
      "5",
      "14",
      "10",
      "8",
      "6",
      "9",
      "4",
      "11",
      "13",
      "12",
      "10"
    ],
    "Latitude": 28.0102793,
    "Longitude": 73.3435858
  },
  {
    "HospitalName": "SENTTARA MULTISPECIALITY HOSPITAL",
    "Address": "NR. SHIV SHAKTI BRTS,",
    "City": "AHMEDABAD",
    "State": "GUJARAT",
    "Pincode": 382424,
    "Phone": 232911111,
    "no": 6408,
    "TPAs": [
      "1",
      "2",
      "3",
      "5",
      "14",
      "10",
      "8",
      "6",
      "9",
      "4",
      "11",
      "13",
      "12",
      "10"
    ],
    "Latitude": 23.112058,
    "Longitude": 72.5840082
  },
  {
    "HospitalName": "JPM Rotary Club Of Cuttack Eye Hospital & Research Institute",
    "Address": "CDA,Sector VI,Market Nagar,AbhinavBidanasi",
    "City": "Cuttack",
    "State": "Odisha",
    "Pincode": 753014,
    "Phone": "2363994/2362994/2364485",
    "no": 6409,
    "TPAs": [
      "1",
      "2",
      "3",
      "5",
      "14",
      "10",
      "8",
      "6",
      "9",
      "4",
      "11",
      "13",
      "12",
      "10"
    ],
    "Latitude": 20.4736038,
    "Longitude": 85.84596069999999
  },
  {
    "HospitalName": "Sanjivani multy speciality hospital",
    "Address": "kollakadavu,P.O Chengannur,",
    "City": "Chengannur",
    "State": "Kerala",
    "Pincode": 690509,
    "Phone": 2350030,
    "no": 6410,
    "TPAs": [
      "1",
      "2",
      "3",
      "5",
      "14",
      "10",
      "8",
      "6",
      "9",
      "4",
      "11",
      "13",
      "12",
      "10"
    ],
    "Latitude": 9.2593125,
    "Longitude": 76.5961875
  },
  {
    "HospitalName": "SUN CRITICAL CARE,TRAUMA CARE AND MULTISPECIALITY",
    "Address": "H.NO 18-596/3,NEAR IB CHOWRASTHA MANCHERIAL",
    "City": "MANCHERIAL",
    "State": "TELANGANA",
    "Pincode": 504208,
    "Phone": 255577,
    "no": 6411,
    "TPAs": [
      "1",
      "2",
      "3",
      "5",
      "14",
      "10",
      "8",
      "6",
      "9",
      "4",
      "11",
      "13",
      "12",
      "10"
    ],
    "Latitude": 18.8678382,
    "Longitude": 79.4640199
  },
  {
    "HospitalName": "Gangina Hospitals Maternity & Children & Emergency Hospital",
    "Address": "#12-21-2, Near Chinna Gandhi Statue, ",
    "City": "Rajahmundry",
    "State": "Andhra Pradesh",
    "Pincode": 500004,
    "Phone": 2433636,
    "no": 6413,
    "TPAs": [
      "1",
      "2",
      "3",
      "5",
      "14",
      "10",
      "8",
      "6",
      "9",
      "4",
      "11",
      "13",
      "12",
      "10"
    ],
    "Latitude": 17.008181,
    "Longitude": 81.7781979
  },
  {
    "HospitalName": "VENUS SUPERSPECIALITY HOSPITAL(A UNIT OF VENUS MEDISURGE PVT LTD.)",
    "Address": "7A/7B SHRINATHJI PARK SOC.OPP WARD OFFICE NO 6, OLD PADRA ROAD VADODARA-390020",
    "City": "VADODARA",
    "State": "GUJARAT",
    "Pincode": 390020,
    "Phone": 2342445,
    "no": 6414,
    "TPAs": [
      "1",
      "2",
      "3",
      "5",
      "14",
      "10",
      "8",
      "6",
      "9",
      "4",
      "11",
      "13",
      "12",
      "10"
    ],
    "Latitude": 22.2982575,
    "Longitude": 73.1641173
  },
  {
    "HospitalName": "SPANDAN HOSPITAL managed by KAIZEN GROUP",
    "Address": "near saffron hotel NH no 48 Thala Chikhli",
    "City": "CHIKHLI",
    "State": "GUJARAT",
    "Pincode": 396521,
    "Phone": "2634 232020 /  2634 231144",
    "no": 6415,
    "TPAs": [
      "1",
      "2",
      "3",
      "5",
      "14",
      "10",
      "8",
      "6",
      "9",
      "4",
      "11",
      "13",
      "12",
      "10"
    ],
    "Latitude": 20.7602555,
    "Longitude": 73.05681489999999
  },
  {
    "HospitalName": "Mother Nursing Home Pvt.Ltd ( A Unit of Shristi)",
    "Address": "52,\u00a0Sukanta Nagar, 3 rd Lane,Michael Nagar, Madhyamgram,Airport",
    "City": "Madhyamgram",
    "State": "West Bengal",
    "Pincode": 700133,
    "Phone": "8585058587/6292241322",
    "no": 6416,
    "TPAs": [
      "1",
      "2",
      "3",
      "5",
      "14",
      "10",
      "8",
      "6",
      "9",
      "4",
      "11",
      "13",
      "12",
      "10"
    ],
    "Latitude": 22.676856,
    "Longitude": 88.4455935
  }
]