{
    "no": "7",
    "hospitals": [
        {
            "HospitalName": "Sirish Hospital",
            "Address": "B-XX-1140,KRISHNA NAGAR",
            "City": "LUDHIANA",
            "State": "PUNJAB",
            "Pincode": "",
            "Contact": "0161-2401566",
            "TPA": [
                "7"
            ],
            "Latitude": 30.9032593,
            "Longitude": 75.8281667,
            "no": 32201
        },
        {
            "HospitalName": "Vip Apex Medical Centre Pvt Ltd",
            "Address": "H/1/16,S.L. SARANI,24 PARGANAS NORTH",
            "City": "KOLKATA",
            "State": "WEST BENGAL",
            "Pincode": "",
            "Contact": "033-25702257",
            "TPA": [
                "7"
            ],
            "Latitude": 22.612731,
            "Longitude": 88.4296169,
            "no": 32202
        },
        {
            "HospitalName": "St.Martha\"S Hospital",
            "Address": "NO.5,NRUPATHUNGA ROAD",
            "City": "BENGALURU",
            "State": "KARNATAKA",
            "Pincode": "",
            "Contact": "080-40128200",
            "TPA": [
                "7"
            ],
            "Latitude": 12.9714096,
            "Longitude": 77.5862989,
            "no": 32203
        },
        {
            "HospitalName": "Shalby Hospital-Mohali",
            "Address": "Phase-9, Sector-63, Near Cricket Stadium",
            "City": "MOHALI",
            "State": "PUNJAB",
            "Pincode": "",
            "Contact": "0",
            "TPA": [
                "7"
            ],
            "Latitude": 30.6922922,
            "Longitude": 76.7333434,
            "no": 32204
        },
        {
            "HospitalName": "Adavally Damodar Reddy Memorial Hospital",
            "Address": "35490 SHARADANAGAR RAMANTHAPUR RANFA,REDDY",
            "City": "HYDERABAD",
            "State": "TELANGANA",
            "Pincode": "",
            "Contact": "040-27038744",
            "TPA": [
                "7"
            ],
            "Latitude": 17.3600041,
            "Longitude": 78.5313007,
            "no": 32205
        },
        {
            "HospitalName": "Sri Ramakrishna Hospital",
            "Address": "395, SAROJINI NAIDU ROAD, SIDHAPUDUR.",
            "City": "coimbatore",
            "State": "Tamil Nadu",
            "Pincode": "",
            "Contact": "00000000",
            "TPA": [
                "7"
            ],
            "Latitude": 11.02318,
            "Longitude": 76.9777328,
            "no": 32206
        },
        {
            "HospitalName": "Phoenix Hospital",
            "Address": "2 MOTILAL COLONY, NIRMAL SENGUPTA, SARANI",
            "City": "KOLKATA",
            "State": "WEST BENGAL",
            "Pincode": "",
            "Contact": "033-25128114",
            "TPA": [
                "7"
            ],
            "Latitude": 22.6487147,
            "Longitude": 88.427953,
            "no": 32207
        },
        {
            "HospitalName": "Mohan Dai Oswal Cancer Treatment & Research Foundation",
            "Address": "G.T. ROAD, SHERPUR BY PASS",
            "City": "LUDHIANA",
            "State": "PUNJAB",
            "Pincode": "",
            "Contact": "0161267100101",
            "TPA": [
                "7"
            ],
            "Latitude": 30.6604908,
            "Longitude": 76.2975805,
            "no": 32208
        },
        {
            "HospitalName": "Madaan Hospital",
            "Address": "Near Nari Niketan, Majitha Road,Amritsar",
            "City": "AMRITSAR",
            "State": "PUNJAB",
            "Pincode": "",
            "Contact": "9815553331",
            "TPA": [
                "7"
            ],
            "Latitude": 31.6439088,
            "Longitude": 74.88460359999999,
            "no": 32209
        },
        {
            "HospitalName": "Kalpana Medical Centre Pvt Ltd",
            "Address": "METTUPALAYAM ROAD,KAVUNDAMPALAYAM",
            "City": "KAVUNDAMPALAYAM",
            "State": "Tamil Nadu",
            "Pincode": "",
            "Contact": "0422-2435597",
            "TPA": [
                "7"
            ],
            "Latitude": 11.046983,
            "Longitude": 76.94743249999999,
            "no": 32210
        },
        {
            "HospitalName": "BMRI HOSPITAL PVT. LTD",
            "Address": "NO.8A, DIAMOND HARBOUR ROAD, 24 PARGANAS(S), 3A BUS STAND-THAKURPUKUR",
            "City": "KOLKATA",
            "State": "WEST BENGAL",
            "Pincode": "",
            "Contact": "033-24534078",
            "TPA": [
                "7"
            ],
            "Latitude": 22.4570732,
            "Longitude": 88.3046873,
            "no": 32211
        },
        {
            "HospitalName": "Sri Balaji Hospitals",
            "Address": "314, POLLACHI MAIL ROAD, SUNDARAPURAM",
            "City": "COIMBATORE",
            "State": "Tamil Nadu",
            "Pincode": "",
            "Contact": "0422-2673788",
            "TPA": [
                "7"
            ],
            "Latitude": 10.9538969,
            "Longitude": 76.97388339999999,
            "no": 32212
        },
        {
            "HospitalName": "Bellona Nursing Home & Diagnostic Centre Pvt. Ltd.",
            "Address": "51 A DIAMOND HARBOUR ROAD MOMINPORE,CROSSING",
            "City": "MOMINPUR",
            "State": "WEST BENGAL",
            "Pincode": "",
            "Contact": "033-24487059",
            "TPA": [
                "7"
            ],
            "Latitude": 22.5296728,
            "Longitude": 88.3263154,
            "no": 32213
        },
        {
            "HospitalName": "Sunetra Family Eye Care Centre",
            "Address": "UNNAYAL COMMERCIAL CENTRE 2ND FLOOR,1050/1 SURVEY PARK SANTOSHPUR",
            "City": "KOLKATA",
            "State": "WEST BENGAL",
            "Pincode": "",
            "Contact": "033-24188223",
            "TPA": [
                "7"
            ],
            "Latitude": 22.4872506,
            "Longitude": 88.3934024,
            "no": 32214
        },
        {
            "HospitalName": "Priyamvada Birla Aravind Eye Hospital",
            "Address": "#10, LOUDON STREET, OPP BELLE VUE CLINIC",
            "City": "KOLKATA",
            "State": "WEST BENGAL",
            "Pincode": "",
            "Contact": "03322894343",
            "TPA": [
                "7"
            ],
            "Latitude": 22.5424612,
            "Longitude": 88.35539059999999,
            "no": 32215
        },
        {
            "HospitalName": "Shushrusha Hospital",
            "Address": "B.B.ROAD,YELANKHA",
            "City": "BENGALURU",
            "State": "KARNATAKA",
            "Pincode": "",
            "Contact": "080-28460057",
            "TPA": [
                "7"
            ],
            "Latitude": 13.0996932,
            "Longitude": 77.5980918,
            "no": 32216
        },
        {
            "HospitalName": "Anand Maternity & Nursing Home",
            "Address": "135, New Link Road, Near Sharda Gram, Dahisar Subway, Dahisar East",
            "City": "THANE",
            "State": "Maharashtra",
            "Pincode": "",
            "Contact": "022-28482776",
            "TPA": [
                "7"
            ],
            "Latitude": 19.2428456,
            "Longitude": 72.8451999,
            "no": 32217
        },
        {
            "HospitalName": "Sree Raam Nursing Home",
            "Address": "41424, NGGO COLONY, THUDIYALUR, KURUDAM PALAYAM",
            "City": "COIMBATORE",
            "State": "Tamil Nadu",
            "Pincode": "",
            "Contact": "0422- 2642933",
            "TPA": [
                "7"
            ],
            "Latitude": 11.0900607,
            "Longitude": 76.94239759999999,
            "no": 32218
        },
        {
            "HospitalName": "Shirdi Sai Hospital Pvt Ltd",
            "Address": "#519 2 MAIN NETHRAVATHI ST NEAR B E L,ROAD",
            "City": "BENGALURU",
            "State": "KARNATAKA",
            "Pincode": "",
            "Contact": "080-57654400",
            "TPA": [
                "7"
            ],
            "Latitude": 13.037254,
            "Longitude": 77.564932,
            "no": 32219
        },
        {
            "HospitalName": "Apoorva Hospital",
            "Address": "46/A,SANTOSHNAGAR COLONY,MEHDIPATNAM",
            "City": "HYDERABAD",
            "State": "TELANGANA",
            "Pincode": "",
            "Contact": "040-65503232",
            "TPA": [
                "7"
            ],
            "Latitude": 17.3913987,
            "Longitude": 78.4369585,
            "no": 32220
        },
        {
            "HospitalName": "S.V.K. Hospital (P) Ltd",
            "Address": "PLOT # 78,OPP RANGA THEATER",
            "City": "HYDERABAD",
            "State": "TELANGANA",
            "Pincode": "",
            "Contact": "040- 2395686",
            "TPA": [
                "7"
            ],
            "Latitude": 17.511935,
            "Longitude": 78.446584,
            "no": 32221
        },
        {
            "HospitalName": "Sukruthi Eye Care Microsurgical Centre",
            "Address": "148 XI CROSS VYALIKAVAL MALLESWARAM 11,TH CROSSMALLESWARAM",
            "City": "BENGALURU",
            "State": "KARNATAKA",
            "Pincode": "",
            "Contact": "080-23566251",
            "TPA": [
                "7"
            ],
            "Latitude": 13.0018109,
            "Longitude": 77.5763274,
            "no": 32222
        },
        {
            "HospitalName": "Unity Centre For Orthopaedics & Trauma",
            "Address": "3-5-170/GS NARAYANGUDA NEAR BAPTIST,CHURCH",
            "City": "HYDERABAD",
            "State": "TELANGANA",
            "Pincode": "",
            "Contact": "040-23261933",
            "TPA": [
                "7"
            ],
            "Latitude": 17.3960399,
            "Longitude": 78.4890375,
            "no": 32223
        },
        {
            "HospitalName": "Shekhar Hospital",
            "Address": "81, BULL TEMPLE ROAD, BASAVANAGUDI",
            "City": "BENGALURU",
            "State": "KARNATAKA",
            "Pincode": "",
            "Contact": "080-41204780",
            "TPA": [
                "7"
            ],
            "Latitude": 12.945849,
            "Longitude": 77.5674721,
            "no": 32224
        },
        {
            "HospitalName": "Seha Hospital",
            "Address": "6-2-1/A-312, Lakdi Kapul,",
            "City": "HYDERABAD",
            "State": "TELANGANA",
            "Pincode": "",
            "Contact": "040-23311972",
            "TPA": [
                "7"
            ],
            "Latitude": 17.4041279,
            "Longitude": 78.4624765,
            "no": 32225
        },
        {
            "HospitalName": "Soundarapandian Bone And Joint Hospital And Research Centre Pvt Ltd",
            "Address": "AA-16 3RD MAIN ROAD ANNA NAGAR",
            "City": "CHENNAI",
            "State": "Tamil Nadu",
            "Pincode": "",
            "Contact": "044-42066667",
            "TPA": [
                "7"
            ],
            "Latitude": 13.090581,
            "Longitude": 80.2153809,
            "no": 32226
        },
        {
            "HospitalName": "Sooriya Hospital",
            "Address": "# 1,ARUNACHALAM ROAD,SALIGRAMAM",
            "City": "CHENNAI",
            "State": "Tamil Nadu",
            "Pincode": "",
            "Contact": "044-23761756",
            "TPA": [
                "7"
            ],
            "Latitude": 13.048184,
            "Longitude": 80.2034821,
            "no": 32227
        },
        {
            "HospitalName": "Agrawal Eye Hospital",
            "Address": "1ST FLOOR MAHARAJA APARTMENT OPP. TEL. EXCHANGE S.V. ROAD MALAD (WEST),EXCHANGE S.V. ROAD MALAD (WEST)",
            "City": "MUMBAI",
            "State": "Maharashtra",
            "Pincode": "",
            "Contact": "022-28820900",
            "TPA": [
                "7"
            ],
            "Latitude": 19.1899383,
            "Longitude": 72.8463553,
            "no": 32228
        },
        {
            "HospitalName": "SKS Hospital India Pvt Ltd",
            "Address": "#23, BRINDAVAN ROAD, ALAGAPURAM",
            "City": "COIMBATORE",
            "State": "Tamil Nadu",
            "Pincode": "",
            "Contact": "0427-4033094",
            "TPA": [
                "7"
            ],
            "Latitude": 11.6702981,
            "Longitude": 78.1432241,
            "no": 32229
        },
        {
            "HospitalName": "Shaker Nursing Home",
            "Address": "#260 SAMPIGE ROAD NEAR,17THCROSSMALLESHWARAM",
            "City": "BENGALURU",
            "State": "KARNATAKA",
            "Pincode": "",
            "Contact": "080-23345901",
            "TPA": [
                "7"
            ],
            "Latitude": 13.007434,
            "Longitude": 77.5709849,
            "no": 32230
        },
        {
            "HospitalName": "Satish Eye Hospital",
            "Address": "OLD NO.15 (NEW NO.57), ORMES ROAD, KILPAUK",
            "City": "CHENNAI",
            "State": "Tamil Nadu",
            "Pincode": "",
            "Contact": "044-26426464",
            "TPA": [
                "7"
            ],
            "Latitude": 13.0814701,
            "Longitude": 80.24689939999999,
            "no": 32231
        },
        {
            "HospitalName": "Sankara Eye Centre",
            "Address": "SATHY ROAD,SIVANANTHAPURAM",
            "City": "COIMBATORE",
            "State": "Tamil Nadu",
            "Pincode": "",
            "Contact": "0422- 2666450",
            "TPA": [
                "7"
            ],
            "Latitude": 11.055938,
            "Longitude": 76.99784559999999,
            "no": 32232
        },
        {
            "HospitalName": "Global S.N.G Hospital",
            "Address": "# 16/1 SOUTH TUKOGANJ KANCHAN BAGH MAIN,ROAD",
            "City": "INDORE",
            "State": "Madhya Pradesh",
            "Pincode": "",
            "Contact": "0731-2525555",
            "TPA": [
                "7"
            ],
            "Latitude": 22.7202848,
            "Longitude": 75.8816224,
            "no": 32233
        },
        {
            "HospitalName": "Sakthi Hospital & Research Centre",
            "Address": "175 BIG STREET TRIPLICANE - NEAR INDIAN,BANKTRIPLICANE",
            "City": "CHENNAI",
            "State": "Tamil Nadu",
            "Pincode": "",
            "Contact": "9840255088",
            "TPA": [
                "7"
            ],
            "Latitude": 13.0570045,
            "Longitude": 80.2757397,
            "no": 32234
        },
        {
            "HospitalName": "Rohit Eye Hospital & Child Care Centre",
            "Address": "201-202 SAPPHR HOUSE 9 SNEH NAGAR",
            "City": "INDORE",
            "State": "Madhya Pradesh",
            "Pincode": "",
            "Contact": "0731-2460911",
            "TPA": [
                "7"
            ],
            "Latitude": 22.702785,
            "Longitude": 75.87155349999999,
            "no": 32235
        },
        {
            "HospitalName": "Yashoda Super Speciality Hospital",
            "Address": "H.NO.16/10/29, RAJBHAVAN ROAD, SOMAJIGUDA",
            "City": "HYDERABAD",
            "State": "TELANGANA",
            "Pincode": "",
            "Contact": "0",
            "TPA": [
                "7"
            ],
            "Latitude": 17.4166024,
            "Longitude": 78.45920919999999,
            "no": 32236
        },
        {
            "HospitalName": "Rsr\"S Trinity Acute Care Hospital",
            "Address": "NO.33,DESIKA ROAD,MYLAPORE MYLAPORE",
            "City": "CHENNAI",
            "State": "Tamil Nadu",
            "Pincode": "",
            "Contact": "044-24991480",
            "TPA": [
                "7"
            ],
            "Latitude": 13.0385978,
            "Longitude": 80.2578199,
            "no": 32237
        },
        {
            "HospitalName": "KAMINENI HEALTH SERVICES PRIVATE LIMITED",
            "Address": "4/1/1227,KING KOTI ROAD,ABIDS",
            "City": "HYDERABAD",
            "State": "TELANGANA",
            "Pincode": "",
            "Contact": "040-66924444",
            "TPA": [
                "7"
            ],
            "Latitude": 17.3927235,
            "Longitude": 78.4780025,
            "no": 32238
        },
        {
            "HospitalName": "Pradnya Nethralaya",
            "Address": "#4 6TH CROSS DINNUR ROAD GANESHA BLOCK,RT NAGAR OPP WHITE HOUSE APARTMENTS",
            "City": "BENGALURU",
            "State": "KARNATAKA",
            "Pincode": "",
            "Contact": "080-23431020",
            "TPA": [
                "7"
            ],
            "Latitude": 13.0240625,
            "Longitude": 77.60042299999999,
            "no": 32239
        },
        {
            "HospitalName": "Woodlands Hospital",
            "Address": "3-4-852 BARKATPURA,ADRESSSS 1",
            "City": "HYDERABAD",
            "State": "TELANGANA",
            "Pincode": "",
            "Contact": "040-27555000",
            "TPA": [
                "7"
            ],
            "Latitude": 17.3929529,
            "Longitude": 78.4975817,
            "no": 32240
        },
        {
            "HospitalName": "Rigid Hospital Pvt Ltd",
            "Address": "47/3,NEW AVADI ROAD,KILPAUK",
            "City": "CHENNAI",
            "State": "Tamil Nadu",
            "Pincode": "",
            "Contact": "9840840279",
            "TPA": [
                "7"
            ],
            "Latitude": 13.0779907,
            "Longitude": 80.2336954,
            "no": 32241
        },
        {
            "HospitalName": "Richmond Hospital",
            "Address": "1287,TRICHY ROAD,NEAR SREEPATHY THEATRE",
            "City": "COIMBATORE",
            "State": "Tamil Nadu",
            "Pincode": "",
            "Contact": "0422-2303630",
            "TPA": [
                "7"
            ],
            "Latitude": 10.9945676,
            "Longitude": 76.9793788,
            "no": 32242
        },
        {
            "HospitalName": "Noble Hospital",
            "Address": "# 28/1 SOUTH TUKOGANJ",
            "City": "INDORE",
            "State": "Madhya Pradesh",
            "Pincode": "",
            "Contact": "0731-2524649",
            "TPA": [
                "7"
            ],
            "Latitude": 22.72108,
            "Longitude": 75.877786,
            "no": 32243
        },
        {
            "HospitalName": "Shradha Eye Care Centre (Shradha Health Care Pvt Ltd)",
            "Address": "#15, S.N ROY ROAD",
            "City": "KOLKATA",
            "State": "WEST BENGAL",
            "Pincode": "",
            "Contact": "033-25008567",
            "TPA": [
                "7"
            ],
            "Latitude": 22.5065649,
            "Longitude": 88.3328944,
            "no": 32244
        },
        {
            "HospitalName": "Rakshith Hospital Private Limited",
            "Address": "#153,ARCOT ROAD,VALASARAVAKKAM",
            "City": "CHENNAI",
            "State": "Tamil Nadu",
            "Pincode": "",
            "Contact": "044-42749916",
            "TPA": [
                "7"
            ],
            "Latitude": 13.0422286,
            "Longitude": 80.1776953,
            "no": 32245
        },
        {
            "HospitalName": "Ram Lal Kundan Lal Orthopadic Hospital",
            "Address": "BUNGLOW PLOT # 8 MAYUR VIHAR PATPARGANJ,ROAD",
            "City": "DELHI",
            "State": "DELHI",
            "Pincode": "",
            "Contact": "9555585468",
            "TPA": [
                "7"
            ],
            "Latitude": 28.6180931,
            "Longitude": 77.2868119,
            "no": 32246
        },
        {
            "HospitalName": "Prasad Eye Hospital",
            "Address": "# 11,KRISHNA NAGAR,HOSUR MAIN ROAD",
            "City": "BENGALURU",
            "State": "KARNATAKA",
            "Pincode": "",
            "Contact": "080-41106887",
            "TPA": [
                "7"
            ],
            "Latitude": 12.9355384,
            "Longitude": 77.6082089,
            "no": 32247
        },
        {
            "HospitalName": "PRABHA EYE CLINIC & RESEARCH CENTRE",
            "Address": "NO.504, 40TH CROSS, 8TH BLOCK JAYANAGAR",
            "City": "BENGALURU",
            "State": "KARNATAKA",
            "Pincode": "",
            "Contact": "080- 26659595",
            "TPA": [
                "7"
            ],
            "Latitude": 12.9198445,
            "Longitude": 77.5753814,
            "no": 32248
        },
        {
            "HospitalName": "Lake View Hospital",
            "Address": "100A,KALPALAYAM,RED HILLS ROAD",
            "City": "CHENNAI",
            "State": "Tamil Nadu",
            "Pincode": "",
            "Contact": "044-25659911",
            "TPA": [
                "7"
            ],
            "Latitude": 13.1368453,
            "Longitude": 80.2086759,
            "no": 32249
        },
        {
            "HospitalName": "Panacea Hospitals Private Limited",
            "Address": "#334, dr. Sidhdajah Puranik Road, 3rd Stage, 4th Block, Basaveshwara Nagar",
            "City": "BENGALURU",
            "State": "KARNATAKA",
            "Pincode": "",
            "Contact": "080-23235577",
            "TPA": [
                "7"
            ],
            "Latitude": 12.9897137,
            "Longitude": 77.5378962,
            "no": 32250
        },
        {
            "HospitalName": "Maa Hospitals Pvt. Ltd. (Maa Ent Institute)",
            "Address": "H.No. 8-2-293/82/A/1266, Road No. 36, Jubilee Hills",
            "City": "HYDERABAD",
            "State": "TELANGANA",
            "Pincode": "",
            "Contact": "040-23212177",
            "TPA": [
                "7"
            ],
            "Latitude": 17.4272312,
            "Longitude": 78.41427000000002,
            "no": 32251
        },
        {
            "HospitalName": "Usha Mohan Hospital",
            "Address": "3-4-181/1 HYDERGUDA RAJENDRANAGAR RING,ROAD",
            "City": "HYDERABAD",
            "State": "TELANGANA",
            "Pincode": "",
            "Contact": "040-24008055",
            "TPA": [
                "7"
            ],
            "Latitude": 17.3938227,
            "Longitude": 78.4834733,
            "no": 32252
        },
        {
            "HospitalName": "Usha Mullapudi Cardiac Centre",
            "Address": "GAJULARAMARAM ROAD JEEDIMETLA",
            "City": "HYDERABAD",
            "State": "TELANGANA",
            "Pincode": "",
            "Contact": "040-23090609",
            "TPA": [
                "7"
            ],
            "Latitude": 17.520614,
            "Longitude": 78.4293592,
            "no": 32253
        },
        {
            "HospitalName": "Rajan Eye Care Hospital Pvt Ltd",
            "Address": "5 VIDHYODAYA EAST 2ND STREET NEAR,VALLUVAR KOTTAM2ND STREET T.NAGAR",
            "City": "CHENNAI",
            "State": "Tamil Nadu",
            "Pincode": "",
            "Contact": "044-28341768",
            "TPA": [
                "7"
            ],
            "Latitude": 13.0508347,
            "Longitude": 80.243369,
            "no": 32254
        },
        {
            "HospitalName": "Nethradhama Hospitals Private Limited",
            "Address": "256/14 KANAKAPURA MAIN ROAD 7TH BLOCK,JAYANAGAR -7TH BLOCK JAYANAGAR",
            "City": "BENGALURU",
            "State": "KARNATAKA",
            "Pincode": "",
            "Contact": "00",
            "TPA": [
                "7"
            ],
            "Latitude": 12.9252713,
            "Longitude": 77.57737569999999,
            "no": 32255
        },
        {
            "HospitalName": "R.G.STONE UROLOGY AND LAPROSCOPY HOSPITAL",
            "Address": "391/392, ANNA SALAI, SAIDAPET",
            "City": "CHENNAI",
            "State": "Tamil Nadu",
            "Pincode": "",
            "Contact": "044-43993600",
            "TPA": [
                "7"
            ],
            "Latitude": 13.0239743,
            "Longitude": 80.2277077,
            "no": 32256
        },
        {
            "HospitalName": "Greater Kailash Hospital",
            "Address": "41580,OLD PALASIA",
            "City": "INDORE",
            "State": "Madhya Pradesh",
            "Pincode": "",
            "Contact": "0731-6633438",
            "TPA": [
                "7"
            ],
            "Latitude": 22.7251626,
            "Longitude": 75.88948950000001,
            "no": 32257
        },
        {
            "HospitalName": "Gokuldas Hospital Ltd",
            "Address": "11, DR.SARJU PRASAD MARG",
            "City": "INDORE",
            "State": "Madhya Pradesh",
            "Pincode": "",
            "Contact": "0731-2519212",
            "TPA": [
                "7"
            ],
            "Latitude": 22.7192989,
            "Longitude": 75.8422862,
            "no": 32258
        },
        {
            "HospitalName": "Saijyothi Eye Institute",
            "Address": "Plot No 85, Road 1,LANE TO OMSHATI FOODS,West Marredpally",
            "City": "SECUNDERABAD",
            "State": "TELANGANA",
            "Pincode": "",
            "Contact": "9999999",
            "TPA": [
                "7"
            ],
            "Latitude": 17.447029,
            "Longitude": 78.5022199,
            "no": 32259
        },
        {
            "HospitalName": "Adiva Hospital Pvt. Ltd.",
            "Address": "C- 1/C GREEN PARK EXT",
            "City": "DELHI",
            "State": "DELHI",
            "Pincode": "",
            "Contact": "011-26018515",
            "TPA": [
                "7"
            ],
            "Latitude": 28.5592762,
            "Longitude": 77.2066334,
            "no": 32260
        },
        {
            "HospitalName": "S.V. Multi Speciality Hospital",
            "Address": "#6-156 SLNS COLONY BALAPUR X,ROADS.MEERPET RR DIST",
            "City": "HYDERABAD",
            "State": "TELANGANA",
            "Pincode": "",
            "Contact": "08415-240157",
            "TPA": [
                "7"
            ],
            "Latitude": 17.3210169,
            "Longitude": 78.5199518,
            "no": 32261
        },
        {
            "HospitalName": "Curewell Hospital Pvt. Ltd.",
            "Address": "19/1-C, NEW PALASIA",
            "City": "INDORE",
            "State": "Madhya Pradesh",
            "Pincode": "",
            "Contact": "0731-2434445",
            "TPA": [
                "7"
            ],
            "Latitude": 22.7265355,
            "Longitude": 75.88205649999999,
            "no": 32262
        },
        {
            "HospitalName": "Prime Care Nursing Home",
            "Address": "NEW NO.3, OLD NO.44, SAKTHI NAGAR MAIN ROAD, ADAMBAKKAM",
            "City": "CHENNAI",
            "State": "Tamil Nadu",
            "Pincode": "",
            "Contact": "044-22533119",
            "TPA": [
                "7"
            ],
            "Latitude": 12.9798895,
            "Longitude": 80.2044523,
            "no": 32263
        },
        {
            "HospitalName": "Vasan Eye Care Hospital (Saidapet)",
            "Address": "#102A, Bazaar Road, Saidapet, Chennai",
            "City": "CHENNAI",
            "State": "Tamil Nadu",
            "Pincode": "",
            "Contact": "044-39890000",
            "TPA": [
                "7"
            ],
            "Latitude": 13.0232689,
            "Longitude": 80.2270156,
            "no": 32264
        },
        {
            "HospitalName": "CONVENIENT HOSPITAL LTD",
            "Address": "AB ROADNEAR LIG TRINGNEENEAR L.I.G.,SQUARE",
            "City": "INDORE",
            "State": "Madhya Pradesh",
            "Pincode": "",
            "Contact": "0731-4220142",
            "TPA": [
                "7"
            ],
            "Latitude": 22.737283,
            "Longitude": 75.8908584,
            "no": 32265
        },
        {
            "HospitalName": "Swarup Eye Centre",
            "Address": "5-9-163, CHAPEL ROAD, ABIDS",
            "City": "HYDERABAD",
            "State": "TELANGANA",
            "Pincode": "",
            "Contact": "040-66783188",
            "TPA": [
                "7"
            ],
            "Latitude": 17.3950406,
            "Longitude": 78.47210439999999,
            "no": 32266
        },
        {
            "HospitalName": "Noble Hospital (Chennai)",
            "Address": "4 AUDIAPPA STREET, SCHOOLLPUSAWALKAM",
            "City": "CHENNAI",
            "State": "Tamil Nadu",
            "Pincode": "",
            "Contact": "044-26403335",
            "TPA": [
                "7"
            ],
            "Latitude": 13.0823185,
            "Longitude": 80.25320239999999,
            "no": 32267
        },
        {
            "HospitalName": "Nichani\"s Hospital",
            "Address": "#10, ARATHOON ROAD, ROYAPURAM",
            "City": "CHENNAI",
            "State": "Tamil Nadu",
            "Pincode": "",
            "Contact": "044-25966499",
            "TPA": [
                "7"
            ],
            "Latitude": 13.111235,
            "Longitude": 80.29388349999999,
            "no": 32268
        },
        {
            "HospitalName": "Bombay Hospital",
            "Address": "IDA SCHEME,NO .94/95RING ROAD",
            "City": "INDORE",
            "State": "Madhya Pradesh",
            "Pincode": "",
            "Contact": "0731-2575811",
            "TPA": [
                "7"
            ],
            "Latitude": 22.753545,
            "Longitude": 75.904499,
            "no": 32269
        },
        {
            "HospitalName": "Bhandari Hospital & Research Centre",
            "Address": "GF-21,22,23 SCHEME # 54 VIJAY NAGAR",
            "City": "INDORE",
            "State": "Madhya Pradesh",
            "Pincode": "",
            "Contact": "0731-5003333",
            "TPA": [
                "7"
            ],
            "Latitude": 22.7496812,
            "Longitude": 75.8913294,
            "no": 32270
        },
        {
            "HospitalName": "Anand Hospital & Research Centre Pvt Ltd",
            "Address": "7,SINDHU NAGAR,BHANWARKUA MAIN ROAD",
            "City": "INDORE",
            "State": "Madhya Pradesh",
            "Pincode": "",
            "Contact": "0731-2472121",
            "TPA": [
                "7"
            ],
            "Latitude": 22.7031076,
            "Longitude": 75.8614812,
            "no": 32271
        },
        {
            "HospitalName": "Sridevi Maternity & Nursing Home",
            "Address": "12,11-253/251,WARASIGUDA",
            "City": "SECUNDERABAD",
            "State": "TELANGANA",
            "Pincode": "",
            "Contact": "040-27509124",
            "TPA": [
                "7"
            ],
            "Latitude": 17.4169442,
            "Longitude": 78.5173532,
            "no": 32272
        },
        {
            "HospitalName": "Sai Ram Multi Speciality Hospital",
            "Address": "# 7-78/1 KONARAK THETRE LANE P &T COLONY ROAD DILSUKHNAGAR",
            "City": "HYDERABAD",
            "State": "TELANGANA",
            "Pincode": "",
            "Contact": "040-66758515",
            "TPA": [
                "7"
            ],
            "Latitude": 17.368325,
            "Longitude": 78.5249025,
            "no": 32273
        },
        {
            "HospitalName": "Swapn Healthcare Hospitals Pvt Ltd",
            "Address": "GROUND FLOOR SARDAR COMPLEX OPP GOVIND WADI ISANPUR",
            "City": "AHMEDABAD",
            "State": "Gujarat",
            "Pincode": "",
            "Contact": "079-25391810",
            "TPA": [
                "7"
            ],
            "Latitude": 22.9834107,
            "Longitude": 72.597175,
            "no": 32274
        },
        {
            "HospitalName": "Miot Hospitals",
            "Address": "4/112, MOUNT POONA MALLEE",
            "City": "CHENNAI",
            "State": "Tamil Nadu",
            "Pincode": "",
            "Contact": "9841548959",
            "TPA": [
                "7"
            ],
            "Latitude": 13.022184,
            "Longitude": 80.1859783,
            "no": 32275
        },
        {
            "HospitalName": "Mallya Hospital",
            "Address": "# 2,VITTAL MALLYA ROAD",
            "City": "BENGALURU",
            "State": "KARNATAKA",
            "Pincode": "",
            "Contact": "9901107032",
            "TPA": [
                "7"
            ],
            "Latitude": 12.9683824,
            "Longitude": 77.5950065,
            "no": 32276
        },
        {
            "HospitalName": "Sree Srinivasan Ent Care & Research Institute",
            "Address": "6-3-663/7/5 JAFFER ALI BAGH BESIDE,SABOO MOTORS SAMAJIGUD",
            "City": "HYDERABAD",
            "State": "TELANGANA",
            "Pincode": "",
            "Contact": "040-66664995",
            "TPA": [
                "7"
            ],
            "Latitude": 17.4234957,
            "Longitude": 78.4568778,
            "no": 32277
        },
        {
            "HospitalName": "Sowmya Hospital",
            "Address": "1-9-49/B/1,RAMANAGAR",
            "City": "HYDERABAD",
            "State": "TELANGANA",
            "Pincode": "",
            "Contact": "040-65791552",
            "TPA": [
                "7"
            ],
            "Latitude": 17.4097696,
            "Longitude": 78.50853819999999,
            "no": 32278
        },
        {
            "HospitalName": "Margaret Sidney Hospital",
            "Address": "OLD NO.5 NEW NO.13 7TH STREET,NANGANALLUR7TH STREET NANGANALLUR",
            "City": "CHENNAI",
            "State": "Tamil Nadu",
            "Pincode": "",
            "Contact": "044-22343663",
            "TPA": [
                "7"
            ],
            "Latitude": 12.9837888,
            "Longitude": 80.1931295,
            "no": 32279
        },
        {
            "HospitalName": "M.S. Ramaiah Memorial Hospital",
            "Address": "MSRIT PO,NEW BEL ROAD,MSR NAGAR",
            "City": "BENGALURU",
            "State": "KARNATAKA",
            "Pincode": "",
            "Contact": "980000000",
            "TPA": [
                "7"
            ],
            "Latitude": 13.0283322,
            "Longitude": 77.56978409999999,
            "no": 32280
        },
        {
            "HospitalName": "Janakalyan Hospital (Sushrusha Hospital Pvt Ltd)",
            "Address": "OPP BHAKTA VALLA DHOLLA HIGH SCHOOL,KANKARIA ROAD  VIA SHAHETALAM TOLL NAKA",
            "City": "AHMEDABAD",
            "State": "Gujarat",
            "Pincode": "",
            "Contact": "079-25354757",
            "TPA": [
                "7"
            ],
            "Latitude": 23.0012475,
            "Longitude": 72.59039829999999,
            "no": 32281
        },
        {
            "HospitalName": "Fortis Malar Hospitals Ltd",
            "Address": "#52 1ST MAIN RD GANDHI NAGAR ADYAR,ADYAR",
            "City": "CHENNAI",
            "State": "Tamil Nadu",
            "Pincode": "",
            "Contact": "4442892222",
            "TPA": [
                "7"
            ],
            "Latitude": 13.0101544,
            "Longitude": 80.25861599999999,
            "no": 32282
        },
        {
            "HospitalName": "Madurai Eye Centre",
            "Address": "137 EAST PERIASAMY ROAD R.S.PURAM,R.S.PURAM",
            "City": "COIMBATORE",
            "State": "Tamil Nadu",
            "Pincode": "",
            "Contact": "0422-2553077",
            "TPA": [
                "7"
            ],
            "Latitude": 11.0136417,
            "Longitude": 76.9510427,
            "no": 32283
        },
        {
            "HospitalName": "Lakshmi Maternity Home",
            "Address": "#95, 15TH CROSS, MARGOSA ROAD, MALLESWARAM",
            "City": "BENGALURU",
            "State": "KARNATAKA",
            "Pincode": "",
            "Contact": "080-23563016",
            "TPA": [
                "7"
            ],
            "Latitude": 13.0057697,
            "Longitude": 77.56933819999999,
            "no": 32284
        },
        {
            "HospitalName": "Devasya Kidney And Multispeciality  Hospital",
            "Address": "3 PANCHAL NAGAR SOCIETY OPP MEHASANA,SOCIETY NAVA VADAJ ROAD VADAJ",
            "City": "AHMEDABAD",
            "State": "Gujarat",
            "Pincode": "",
            "Contact": "079-27642100",
            "TPA": [
                "7"
            ],
            "Latitude": 23.0580819,
            "Longitude": 72.5685805,
            "no": 32285
        },
        {
            "HospitalName": "M.R.Hospital",
            "Address": "#20  GOVINDAN STREET AYYAVOO,COLONYAMINJIKARAI",
            "City": "CHENNAI",
            "State": "Tamil Nadu",
            "Pincode": "",
            "Contact": "044-23633314",
            "TPA": [
                "7"
            ],
            "Latitude": 13.0725878,
            "Longitude": 80.2194708,
            "no": 32286
        },
        {
            "HospitalName": "M.N. Eye Hospital Pvt. Ltd (T.H Road)",
            "Address": "NO. 781,T.H.ROAD OPP. TONDIARPET POLICE STATION",
            "City": "Chennai",
            "State": "Tamil Nadu",
            "Pincode": "",
            "Contact": "044-25956403",
            "TPA": [
                "7"
            ],
            "Latitude": 13.1232675,
            "Longitude": 80.28765109999999,
            "no": 32287
        },
        {
            "HospitalName": "Sathya Kidney Centre & Super Speciality Hospitals (A Unit Of Sathya Nursing Home Ltd.)",
            "Address": "3-6-426,STREET NO 4 Himayatnagar",
            "City": "HYDERABAD",
            "State": "TELANGANA",
            "Pincode": "",
            "Contact": "040-27636444",
            "TPA": [
                "7"
            ],
            "Latitude": 17.4047975,
            "Longitude": 78.48206499999999,
            "no": 32288
        },
        {
            "HospitalName": "Usha-Deep Hospital",
            "Address": "3RD FLOOR MANSAROVAR COMPLEXNARANPURA,CHAR RASTA",
            "City": "AHMEDABAD",
            "State": "Gujarat",
            "Pincode": "",
            "Contact": "079-55621287",
            "TPA": [
                "7"
            ],
            "Latitude": 23.0566017,
            "Longitude": 72.5530963,
            "no": 32289
        },
        {
            "HospitalName": "Saivani Super Speciality Hospital (A Unit Of Vishwa Health Institute Pvt Ltd)",
            "Address": "1-2-365/36/67 RAMAKRISHNA MATH ROAD OPP,INDIRA PARK DOMALUDA.",
            "City": "HYDERABAD",
            "State": "ANDHRA PRADESH",
            "Pincode": "",
            "Contact": "040-27634462",
            "TPA": [
                "7"
            ],
            "Latitude": 17.4109667,
            "Longitude": 78.48355839999999,
            "no": 32290
        },
        {
            "HospitalName": "Laser And Laparoscopic Hospital",
            "Address": "121,GN CHETTY ROAD,T NAGAR",
            "City": "CHENNAI",
            "State": "Tamil Nadu",
            "Pincode": "",
            "Contact": "044-28154590",
            "TPA": [
                "7"
            ],
            "Latitude": 13.0430977,
            "Longitude": 80.237115,
            "no": 32291
        },
        {
            "HospitalName": "Tapan Hospital",
            "Address": "BAPUNAGAR,CHARRATHA",
            "City": "AHMEDABAD",
            "State": "Gujarat",
            "Pincode": "",
            "Contact": "079-22773000",
            "TPA": [
                "7"
            ],
            "Latitude": 23.0360128,
            "Longitude": 72.62984399999999,
            "no": 32292
        },
        {
            "HospitalName": "Kumaran Hospital Pvt Ltd",
            "Address": "NO. 214,P.H.ROAD,KILPAUK",
            "City": "KILPAUK",
            "State": "Tamil Nadu",
            "Pincode": "",
            "Contact": "044-26411860",
            "TPA": [
                "7"
            ],
            "Latitude": 13.0790214,
            "Longitude": 80.2490449,
            "no": 32293
        },
        {
            "HospitalName": "Shruti Maternity & Surgical Nursing Home",
            "Address": "D2-D3 MEDICAL COMPLEX SOLA ROAD,NARANPURA",
            "City": "AHMEDABAD",
            "State": "Gujarat",
            "Pincode": "",
            "Contact": "079-27472071",
            "TPA": [
                "7"
            ],
            "Latitude": 23.0565377,
            "Longitude": 72.5448818,
            "no": 32294
        },
        {
            "HospitalName": "Swasti Eye & Super Speciality Nursing Home",
            "Address": "SWASTI EYE DEPARTMENT H-AA-2/2 RAJARHAT,ROAD JORAMANDIR ING TALTALA BAGUIATI,BAGVIATI",
            "City": "KOLKATA",
            "State": "WEST BENGAL",
            "Pincode": "",
            "Contact": "033-25706789",
            "TPA": [
                "7"
            ],
            "Latitude": 22.6134477,
            "Longitude": 88.4302956,
            "no": 32295
        },
        {
            "HospitalName": "Krishna Medical Hospital",
            "Address": "1ST FLOOR SHRINATH COMPLEX SHREENATH,SOCIETY NIKOL GRAM ROAD",
            "City": "AHMEDABAD",
            "State": "Gujarat",
            "Pincode": "",
            "Contact": "",
            "TPA": [
                "7"
            ],
            "Latitude": 23.0515325,
            "Longitude": 72.66430090000001,
            "no": 32296
        },
        {
            "HospitalName": "Susrut Eye Foundation & Research Centre",
            "Address": "HB/36/A/1 SECTOR III  SALT LAKE CITY",
            "City": "Kolkatta",
            "State": "WEST BENGAL",
            "Pincode": "",
            "Contact": "0",
            "TPA": [
                "7"
            ],
            "Latitude": 22.5754482,
            "Longitude": 88.4176799,
            "no": 32297
        },
        {
            "HospitalName": "Kongunad Hospital",
            "Address": "116117 11TH STREET OPP.TO POWER,HOUSE.EAST POWER HOUSE END TATABAD,TATABAD",
            "City": "coimbatore",
            "State": "Tamil Nadu",
            "Pincode": "",
            "Contact": "7708018283",
            "TPA": [
                "7"
            ],
            "Latitude": 11.0177264,
            "Longitude": 76.9604544,
            "no": 32298
        },
        {
            "HospitalName": "Ram Hospital",
            "Address": "SAHPUR NAGAR,I.D.A.,JEEDIMETLA",
            "City": "HYDERABAD",
            "State": "TELANGANA",
            "Pincode": "",
            "Contact": "040-23095777",
            "TPA": [
                "7"
            ],
            "Latitude": 17.5163289,
            "Longitude": 78.4477289,
            "no": 32299
        },
        {
            "HospitalName": "Kkr Ent Hospital And Research Institute(P) Ltd.",
            "Address": "# 274,OLD # 827,POONAMALLE HIGH ROAD",
            "City": "CHENNAI",
            "State": "Tamil Nadu",
            "Pincode": "",
            "Contact": "044-26411444",
            "TPA": [
                "7"
            ],
            "Latitude": 13.0782087,
            "Longitude": 80.2451493,
            "no": 32300
        },
        {
            "HospitalName": "Shraddha Hospital",
            "Address": "A/15,VIJAY COMPLX,VASNA",
            "City": "AHMEDABAD",
            "State": "Gujarat",
            "Pincode": "",
            "Contact": "0792-6602663",
            "TPA": [
                "7"
            ],
            "Latitude": 23.0024779,
            "Longitude": 72.5492991,
            "no": 32301
        },
        {
            "HospitalName": "Shusrusha Nursing Home Pvt. Ltd",
            "Address": "P-290 CIT SCHEME 6-M UPENDRA CH,BANERJEE ROAD CH. BANERJEE ROAD",
            "City": "KOLKATA",
            "State": "WEST BENGAL",
            "Pincode": "",
            "Contact": "033-23628863",
            "TPA": [
                "7"
            ],
            "Latitude": 22.5771917,
            "Longitude": 88.3882938,
            "no": 32302
        },
        {
            "HospitalName": "Kedar Hospital",
            "Address": "19,VINAYAGAPURAM,MUGALIVAKKAM MAIN ROAD",
            "City": "MUGALIVAKKAM",
            "State": "Tamil Nadu",
            "Pincode": "",
            "Contact": "044-22523407",
            "TPA": [
                "7"
            ],
            "Latitude": 13.1419856,
            "Longitude": 80.2077934,
            "no": 32303
        },
        {
            "HospitalName": "Kasthuri Hospital",
            "Address": "119 SHANMUGAM ROAD, WEST TAMBARAM",
            "City": "CHENNAI",
            "State": "Tamil Nadu",
            "Pincode": "",
            "Contact": "9840040869",
            "TPA": [
                "7"
            ],
            "Latitude": 12.926861,
            "Longitude": 80.1146861,
            "no": 32304
        },
        {
            "HospitalName": "Meenakshi Hospital",
            "Address": "979 25TH MAIN ROAD BSK 1ST STAGE 50,FEET ROAD HANUMANTHANAGAR",
            "City": "BENGALURU",
            "State": "KARNATAKA",
            "Pincode": "",
            "Contact": "080-26755800",
            "TPA": [
                "7"
            ],
            "Latitude": 12.9422728,
            "Longitude": 77.5452611,
            "no": 32305
        },
        {
            "HospitalName": "Sanjivani Eye Hospital & Phaco Centre",
            "Address": "3 RD FLOOR,SOHAM-1 COMPLEX 3RD FLOOR NEAR NAVRANG,SIX ROAD NAVARANGPURANAVRANGPURA",
            "City": "AHMEDABAD",
            "State": "Gujarat",
            "Pincode": "",
            "Contact": "079-26561134",
            "TPA": [
                "7"
            ],
            "Latitude": 23.0312941,
            "Longitude": 72.5642675,
            "no": 32306
        },
        {
            "HospitalName": "Kamala Hospital",
            "Address": "NO.256,SECOND AGRAHARAM",
            "City": "SALEM",
            "State": "Tamil Nadu",
            "Pincode": "",
            "Contact": "0427-2260468",
            "TPA": [
                "7"
            ],
            "Latitude": 11.6566178,
            "Longitude": 78.1643045,
            "no": 32307
        },
        {
            "HospitalName": "K.R.Health Care Private Ltd",
            "Address": "93F METTUPALAYAM RO,AD.PERIYANAKENPALAYAM",
            "City": "PERIYANAICKENPALAYAM",
            "State": "Tamil Nadu",
            "Pincode": "",
            "Contact": "0422-2692222",
            "TPA": [
                "7"
            ],
            "Latitude": 11.2848049,
            "Longitude": 76.9437923,
            "no": 32308
        },
        {
            "HospitalName": "K.K. Eye Healthcare & Research Centre",
            "Address": "# 34, GANDHI ROAD, WEST TAMBARAM, KANCHIPURAM",
            "City": "CHENNAI",
            "State": "Tamil Nadu",
            "Pincode": "",
            "Contact": "044-22263130",
            "TPA": [
                "7"
            ],
            "Latitude": 12.9264516,
            "Longitude": 80.10787669999999,
            "no": 32309
        },
        {
            "HospitalName": "Premier Hospital (P) Ltd",
            "Address": "12-2-710,GUDIMALKAPUR ROAD,MEHDIPATNAM",
            "City": "HYDERABAD",
            "State": "TELANGANA",
            "Pincode": "",
            "Contact": "040-23516557",
            "TPA": [
                "7"
            ],
            "Latitude": 17.384064,
            "Longitude": 78.438536,
            "no": 32310
        },
        {
            "HospitalName": "K.J.Hospital Private Ltd.",
            "Address": "927,P.H.ROADPOONAMALEE HIGH ROAD",
            "City": "CHENNAI",
            "State": "Tamil Nadu",
            "Pincode": "",
            "Contact": "044-26411513",
            "TPA": [
                "7"
            ],
            "Latitude": 13.0792152,
            "Longitude": 80.2526451,
            "no": 32311
        },
        {
            "HospitalName": "Vadapalani Multi Speciality Hospital",
            "Address": "NO.33 VADAPALANI ANDAVAR KOIL STREET,VADAPALANI",
            "City": "CHENNAI",
            "State": "Tamil Nadu",
            "Pincode": "",
            "Contact": "044-24832277",
            "TPA": [
                "7"
            ],
            "Latitude": 13.0516551,
            "Longitude": 80.2132958,
            "no": 32312
        },
        {
            "HospitalName": "K Govindaswamy Naidu Medical Trust (K.G.Hospital)",
            "Address": "5 GOVERNMENT,ARTS COLLEGE ROAD,641 018",
            "City": "coimbatore",
            "State": "Tamil Nadu",
            "Pincode": "",
            "Contact": "04224042121",
            "TPA": [
                "7"
            ],
            "Latitude": 11.0002319,
            "Longitude": 76.97157349999999,
            "no": 32313
        },
        {
            "HospitalName": "Probal Eye Institute",
            "Address": "# 34,SATISH MUKHERJEE ROAD",
            "City": "KOLKATA",
            "State": "WEST BENGAL",
            "Pincode": "",
            "Contact": "033-24642782",
            "TPA": [
                "7"
            ],
            "Latitude": 22.5201735,
            "Longitude": 88.3476077,
            "no": 32314
        },
        {
            "HospitalName": "DR. SUSHMA JINDAL HOSPITAL",
            "Address": "488/15,  DILSHAD GARDEN-(NEAR RADHA,KRISHAN MANDIR)",
            "City": "DELHI",
            "State": "DELHI",
            "Pincode": "",
            "Contact": "9811220761",
            "TPA": [
                "7"
            ],
            "Latitude": 28.6790387,
            "Longitude": 77.3148255,
            "no": 32315
        },
        {
            "HospitalName": "Pragna Children\"S Hospital",
            "Address": "6-3-347/22/B/1 DWARAKPURI COLONY NEAR,SAIBABA TEMPLE PUNJAGUTTACOLONY,PUNJAGUTTA",
            "City": "HYDERABAD",
            "State": "TELANGANA",
            "Pincode": "",
            "Contact": "040-66827999",
            "TPA": [
                "7"
            ],
            "Latitude": 17.4230277,
            "Longitude": 78.4503738,
            "no": 32316
        },
        {
            "HospitalName": "North City Hospital & Neuro Institute Pvt. Ltd",
            "Address": "#73,BAGMARI ROAD",
            "City": "KOLKATA",
            "State": "WEST BENGAL",
            "Pincode": "",
            "Contact": "033-23210443",
            "TPA": [
                "7"
            ],
            "Latitude": 22.5893521,
            "Longitude": 88.3937363,
            "no": 32317
        },
        {
            "HospitalName": "Delhi Hospital & Temple Nursing Home",
            "Address": "#1,ANSARI ROAD,DARYA GANJ NEW",
            "City": "DELHI",
            "State": "DELHI",
            "Pincode": "",
            "Contact": "011-23271422",
            "TPA": [
                "7"
            ],
            "Latitude": 28.6410804,
            "Longitude": 77.2450729,
            "no": 32318
        },
        {
            "HospitalName": "Aditya Health Research Foundation (P) Ltd",
            "Address": "965,JESSORE ROAD,DUMDUM",
            "City": "KOLKATA",
            "State": "WEST BENGAL",
            "Pincode": "",
            "Contact": "033-25513128",
            "TPA": [
                "7"
            ],
            "Latitude": 23.0404796,
            "Longitude": 88.8297505,
            "no": 32319
        },
        {
            "HospitalName": "Janaki Ent Nursing Home",
            "Address": "NO.29,NAGAMANI GARDEN STREET",
            "City": "CHENNAI",
            "State": "Tamil Nadu",
            "Pincode": "",
            "Contact": "044-25265958",
            "TPA": [
                "7"
            ],
            "Latitude": 13.0970542,
            "Longitude": 80.2822017,
            "no": 32320
        },
        {
            "HospitalName": "THUMBAY HOSPITAL NEW LIFE",
            "Address": "16-6/104 to 109, Old Kamal Theater Complex, Opp Niagara Hotel, Chaderghat",
            "City": "HYDERABAD",
            "State": "TELANGANA",
            "Pincode": "",
            "Contact": "040-24600600",
            "TPA": [
                "7"
            ],
            "Latitude": 17.3776087,
            "Longitude": 78.491148,
            "no": 32321
        },
        {
            "HospitalName": "Mediview Nursing Home (P) Ltd",
            "Address": "74,BROAD STREET",
            "City": "KOLKATA",
            "State": "WEST BENGAL",
            "Pincode": "",
            "Contact": "033-22803991",
            "TPA": [
                "7"
            ],
            "Latitude": 22.5341889,
            "Longitude": 88.3724132,
            "no": 32322
        },
        {
            "HospitalName": "Parth Surgical Hospital",
            "Address": "SHASHI SHOPPING CENTRE NEAR,SWAMINARAYAN AVENUE VASNA",
            "City": "AHMEDABAD",
            "State": "Gujarat",
            "Pincode": "",
            "Contact": "079-26622371",
            "TPA": [
                "7"
            ],
            "Latitude": 23.0043527,
            "Longitude": 72.5526125,
            "no": 32323
        },
        {
            "HospitalName": "Hindu Mission Health Services",
            "Address": "100 FEET ROAD NANGANALLUR HINDU,COLONYHINDU COLONY",
            "City": "KANCHEEPURAM",
            "State": "Tamil Nadu",
            "Pincode": "",
            "Contact": "9597111454",
            "TPA": [
                "7"
            ],
            "Latitude": 12.9788794,
            "Longitude": 80.1846431,
            "no": 32324
        },
        {
            "HospitalName": "Pushpam Hospital",
            "Address": "SHANTINIKETAN SHOP CENTRE D CABIN,SABARMATI",
            "City": "AHMEDABAD",
            "State": "Gujarat",
            "Pincode": "",
            "Contact": "079- 2750187",
            "TPA": [
                "7"
            ],
            "Latitude": 23.1028896,
            "Longitude": 72.56985639999999,
            "no": 32325
        },
        {
            "HospitalName": "Aditya Medical Park (A Unit Of Aditya Health Research Foundation Pvt Ltd)",
            "Address": "TAKI ROAD KADAMBAGACHI BARASAT 24,PARGANAS (N)BARASAT",
            "City": "KOLKATA",
            "State": "WEST BENGAL",
            "Pincode": "",
            "Contact": "033-25523256",
            "TPA": [
                "7"
            ],
            "Latitude": 22.7089793,
            "Longitude": 88.54098690000001,
            "no": 32326
        },
        {
            "HospitalName": "Hande Hospital",
            "Address": "NO. 45,LAKSHMI TALKIES ROAD,SHENOY NAGAR",
            "City": "CHENNAI",
            "State": "Tamil Nadu",
            "Pincode": "",
            "Contact": "26442517",
            "TPA": [
                "7"
            ],
            "Latitude": 13.076445,
            "Longitude": 80.227361,
            "no": 32327
        },
        {
            "HospitalName": "Parth Hospital Sabarmati",
            "Address": "OPP.OMKAR DAIRY NEAR RAMJI MANDIR,RAMNAGAR SUBARMATVIDYANAGAR MAIN ROAD",
            "City": "AHMEDABAD",
            "State": "Gujarat",
            "Pincode": "",
            "Contact": "079-27509068",
            "TPA": [
                "7"
            ],
            "Latitude": 23.083834,
            "Longitude": 72.5884951,
            "no": 32328
        },
        {
            "HospitalName": "Parimal Hospital",
            "Address": "PUNITMARG, NR. OVER BRIDGE, MANINAGAR,",
            "City": "AHMEDABAD",
            "State": "Gujarat",
            "Pincode": "",
            "Contact": "079-65135008",
            "TPA": [
                "7"
            ],
            "Latitude": 22.9997424,
            "Longitude": 72.6090107,
            "no": 32329
        },
        {
            "HospitalName": "Girishwari Hospital (P) Ltd",
            "Address": "# 19,K,B DHASAN ROADALWARPET",
            "City": "CHENNAI",
            "State": "Tamil Nadu",
            "Pincode": "",
            "Contact": "044-24330069",
            "TPA": [
                "7"
            ],
            "Latitude": 13.0354362,
            "Longitude": 80.25193490000001,
            "no": 32330
        },
        {
            "HospitalName": "Panchshil Hospital",
            "Address": "HIGHWAY,RAMNAGAR,SABARMATI -SABARMATI",
            "City": "AHMEDABAD",
            "State": "Gujarat",
            "Pincode": "",
            "Contact": "079-27504098",
            "TPA": [
                "7"
            ],
            "Latitude": 23.0843243,
            "Longitude": 72.5920437,
            "no": 32331
        },
        {
            "HospitalName": "Medicover Hospitals (A Unit Of Sahrudaya Health Care Private Limited)",
            "Address": "5-9-22, SECRETARIAT ROAD",
            "City": "HYDERABAD",
            "State": "TELANGANA",
            "Pincode": "",
            "Contact": "040-23231111",
            "TPA": [
                "7"
            ],
            "Latitude": 17.4067229,
            "Longitude": 78.4716806,
            "no": 32332
        },
        {
            "HospitalName": "Gem Hospital & Research Centre (P) Ltd",
            "Address": "45-A,PANKAJA MILL ROAD,RAMANATHAPURAM",
            "City": "COIMBATORE",
            "State": "Tamil Nadu",
            "Pincode": "",
            "Contact": "0422-4216673",
            "TPA": [
                "7"
            ],
            "Latitude": 10.9996215,
            "Longitude": 76.9954638,
            "no": 32333
        },
        {
            "HospitalName": "Maxivision Eye Hospitals Pvt Ltd.",
            "Address": "#1-11-252 / 1A TO 1D ALLADIN MANSION,STREET NO 3 BEGUMPET",
            "City": "HYDERABAD",
            "State": "TELANGANA",
            "Pincode": "",
            "Contact": "040-27763677",
            "TPA": [
                "7"
            ],
            "Latitude": 17.4476967,
            "Longitude": 78.4644084,
            "no": 32334
        },
        {
            "HospitalName": "Matrika Dr. Kalpana\"S Hospital",
            "Address": "6-3-1100/2 T-NAGAR  SOMAJIGUDA - NEAR,AYYAPPA SWAMY TEMPLE",
            "City": "HYDERABAD",
            "State": "TELANGANA",
            "Pincode": "",
            "Contact": "040-2340935",
            "TPA": [
                "7"
            ],
            "Latitude": 17.4237128,
            "Longitude": 78.4584013,
            "no": 32335
        },
        {
            "HospitalName": "Kothari Medical Centre",
            "Address": "41489,ALIPORE ROAD",
            "City": "KOLKATA",
            "State": "WEST BENGAL",
            "Pincode": "",
            "Contact": "033-24567050",
            "TPA": [
                "7"
            ],
            "Latitude": 22.5329339,
            "Longitude": 88.3303923,
            "no": 32336
        },
        {
            "HospitalName": "Sri Gokulam Hospital",
            "Address": "No.262, AWAI SHANMUGAM SALAI, GOPALAPURAM,,MEYYANUR ROAD",
            "City": "SALEM",
            "State": "Tamil Nadu",
            "Pincode": "",
            "Contact": "0427-2448171",
            "TPA": [
                "7"
            ],
            "Latitude": 11.672718,
            "Longitude": 78.1339232,
            "no": 32337
        },
        {
            "HospitalName": "Mahalakshmi Nursing Home",
            "Address": "3-2-320, S.S.STREET KALASIGUDA BEHIND,MANJU THEAT",
            "City": "SECUNDERABAD",
            "State": "TELANGANA",
            "Pincode": "",
            "Contact": "040-27812840",
            "TPA": [
                "7"
            ],
            "Latitude": 17.3887094,
            "Longitude": 78.4917952,
            "no": 32338
        },
        {
            "HospitalName": "Madhava Nursing Home",
            "Address": "43,SARODJINI DEVI ROAD",
            "City": "SECUNDERABAD",
            "State": "TELANGANA",
            "Pincode": "",
            "Contact": "040-27700955",
            "TPA": [
                "7"
            ],
            "Latitude": 17.4408935,
            "Longitude": 78.5020724,
            "no": 32339
        },
        {
            "HospitalName": "Frontier Lifeline Pvt Ltd",
            "Address": "R-30-C, AMBATTURINDUSTRIAL ESTATE ROAD",
            "City": "CHENNAI",
            "State": "Tamil Nadu",
            "Pincode": "",
            "Contact": "044-42017575",
            "TPA": [
                "7"
            ],
            "Latitude": 13.087721,
            "Longitude": 80.185609,
            "no": 32340
        },
        {
            "HospitalName": "Apollo First Med Hospitals",
            "Address": "NO 154 POONAMALLEE HIGH ROAD NEAR,NEYVELI HOUSE KILPAUK",
            "City": "CHENNAI",
            "State": "Tamil Nadu",
            "Pincode": "",
            "Contact": "044-28211111",
            "TPA": [
                "7"
            ],
            "Latitude": 13.0777125,
            "Longitude": 80.24592,
            "no": 32341
        },
        {
            "HospitalName": "Dr.Zamindar\"S Microsurgical Eye Centre",
            "Address": "#1013,1ST BLOCK,3RD CROSS,HRBR LAYOUT, BANASWADI 100FT ROAD",
            "City": "KALYANANAGAR",
            "State": "KARNATAKA",
            "Pincode": "",
            "Contact": "080-40900562",
            "TPA": [
                "7"
            ],
            "Latitude": 13.0173586,
            "Longitude": 77.6516773,
            "no": 32342
        },
        {
            "HospitalName": "Eswari Nursing Home",
            "Address": "# 1/255,TENTH STREET,S.R.P.COLONY",
            "City": "CHENNAI",
            "State": "Tamil Nadu",
            "Pincode": "",
            "Contact": "00",
            "TPA": [
                "7"
            ],
            "Latitude": 13.1163582,
            "Longitude": 80.2263723,
            "no": 32343
        },
        {
            "HospitalName": "Essvee Hospital",
            "Address": "# 506M.T.H.ROADAMBATTUR TIRUVALLUR,CHENNAI",
            "City": "CHENNAI",
            "State": "Tamil Nadu",
            "Pincode": "",
            "Contact": "044-2658394",
            "TPA": [
                "7"
            ],
            "Latitude": 13.1231844,
            "Longitude": 80.1460238,
            "no": 32344
        },
        {
            "HospitalName": "Kadimi Nursing Home",
            "Address": "#6-94/6/C LANE BESIDE RK ELECTRONICS,OPP SWAGATH HOTEL CHANDANAGAR",
            "City": "HYDERABAD",
            "State": "TELANGANA",
            "Pincode": "",
            "Contact": "040-23033599",
            "TPA": [
                "7"
            ],
            "Latitude": 17.4939033,
            "Longitude": 78.3267678,
            "no": 32345
        },
        {
            "HospitalName": "Dr. Ravishankar Eye Clinic & Nursing Home",
            "Address": "11,HUNTERS ROAD,VEPERY",
            "City": "CHENNAI",
            "State": "Tamil Nadu",
            "Pincode": "",
            "Contact": "044-25323128",
            "TPA": [
                "7"
            ],
            "Latitude": 13.0872058,
            "Longitude": 80.2595824,
            "no": 32346
        },
        {
            "HospitalName": "Divine Nursing Home Pvt Ltd",
            "Address": "11A ABINASH CHANDRA BANERJEE LANE,BELIAGHATA",
            "City": "KOLKATA",
            "State": "WEST BENGAL",
            "Pincode": "",
            "Contact": "033-40156789",
            "TPA": [
                "7"
            ],
            "Latitude": 22.5662936,
            "Longitude": 88.3928445,
            "no": 32347
        },
        {
            "HospitalName": "Dafodil Nursing Home(P)",
            "Address": "# 276 CANAL STREET,ADRESSSS 1",
            "City": "KOLKATA",
            "State": "WEST BENGAL",
            "Pincode": "",
            "Contact": "033-40505512",
            "TPA": [
                "7"
            ],
            "Latitude": 22.6007451,
            "Longitude": 88.4050133,
            "no": 32348
        },
        {
            "HospitalName": "Mehta Hospital & Cardiaopulmonary Care Centre",
            "Address": "#57, BRAHMIN MITRAMANDAL SOCIETY, ELLISBRIDGE",
            "City": "AHMEDABAD",
            "State": "Gujarat",
            "Pincode": "",
            "Contact": "079-26586152",
            "TPA": [
                "7"
            ],
            "Latitude": 23.0218179,
            "Longitude": 72.57163349999999,
            "no": 32349
        },
        {
            "HospitalName": "Hcg Medi-Surge Hospitals Private Ltd",
            "Address": "# 1, SOCIETY NEAR MITHAKHALI, ELLISBRIDGE",
            "City": "AHMEDABAD",
            "State": "Gujarat",
            "Pincode": "",
            "Contact": "079-40010113",
            "TPA": [
                "7"
            ],
            "Latitude": 23.0287153,
            "Longitude": 72.5642805,
            "no": 32350
        },
        {
            "HospitalName": "MEHTA MULTISPECIALITY HOSPITALS INDIA",
            "Address": "#2 (E) MC. NICHOLAS ROADOPPOSITE TO,CHETPET POLICE STATION",
            "City": "CHENNAI",
            "State": "Tamil Nadu",
            "Pincode": "",
            "Contact": "9600701634",
            "TPA": [
                "7"
            ],
            "Latitude": 13.071373,
            "Longitude": 80.2416576,
            "no": 32351
        },
        {
            "HospitalName": "Umkal Hospital",
            "Address": "A-520,SUSHANT LOK",
            "City": "Gurugram",
            "State": "HARYANA",
            "Pincode": "",
            "Contact": "0124-8941288",
            "TPA": [
                "7"
            ],
            "Latitude": 28.4715216,
            "Longitude": 77.0733067,
            "no": 32352
        },
        {
            "HospitalName": "Basavatarakam Indo American Cancer Hospital & Research Institute",
            "Address": "ROAD NO 14, BANJARA HILLS,BANJARA HILLS",
            "City": "HYDERABAD",
            "State": "TELANGANA",
            "Pincode": "",
            "Contact": "9912225348",
            "TPA": [
                "7"
            ],
            "Latitude": 17.4171079,
            "Longitude": 78.43052329999999,
            "no": 32353
        },
        {
            "HospitalName": "Uma Sanjeevani Health Centre",
            "Address": "1 DAKSHIN MARG DLF PHASE-2DLF CITY,PHASE 2",
            "City": "GURGAON",
            "State": "HARYANA",
            "Pincode": "",
            "Contact": "1242351257",
            "TPA": [
                "7"
            ],
            "Latitude": 28.4814431,
            "Longitude": 77.0864021,
            "no": 32354
        },
        {
            "HospitalName": "Hyderabad Nursing Home Pvt Ltd",
            "Address": "NO:5-9-29/40, OPP GHMC BASHEERBAGH,",
            "City": "HYDERABAD",
            "State": "TELANGANA",
            "Pincode": "",
            "Contact": "040-23222344",
            "TPA": [
                "7"
            ],
            "Latitude": 17.4059952,
            "Longitude": 78.4766134,
            "no": 32355
        },
        {
            "HospitalName": "Kunal Medical Hospital",
            "Address": "C/101 SHREEPAL COMMERCIAL CENTRE,HATKESHWAR CIRCLE",
            "City": "AHMEDABAD",
            "State": "Gujarat",
            "Pincode": "",
            "Contact": "079-25851839",
            "TPA": [
                "7"
            ],
            "Latitude": 22.9982427,
            "Longitude": 72.6250841,
            "no": 32356
        },
        {
            "HospitalName": "Dr.Rabindrans Healthcare Centre (P)Ltd.",
            "Address": "212,MTH ROAD,AMBATTUR",
            "City": "CHENNAI",
            "State": "Tamil Nadu",
            "Pincode": "",
            "Contact": "044-26570606",
            "TPA": [
                "7"
            ],
            "Latitude": 13.1191158,
            "Longitude": 80.1504664,
            "no": 32357
        },
        {
            "HospitalName": "Hope Children\"S Hospital",
            "Address": "5-9-24/81 LAKE HILL ROAD,BASHEERBAGHBASHEER BAGH",
            "City": "HYDERABAD",
            "State": "TELANGANA",
            "Pincode": "",
            "Contact": "040-23223782",
            "TPA": [
                "7"
            ],
            "Latitude": 17.4064914,
            "Longitude": 78.473467,
            "no": 32358
        },
        {
            "HospitalName": "Kiran Surgical Hospital",
            "Address": "301 PRATHAM MANGAL COMPLEX NEAR VASNA,BUS STANDNEAR VASNA BUS STAND",
            "City": "AHMEDABAD",
            "State": "Gujarat",
            "Pincode": "",
            "Contact": "079-266028877",
            "TPA": [
                "7"
            ],
            "Latitude": 23.001045,
            "Longitude": 72.5467654,
            "no": 32359
        },
        {
            "HospitalName": "Manipal Hospital",
            "Address": "KIRLOSKAR BUSINESS PARK BELLARY ROAD,HEBBAL",
            "City": "BENGALURU",
            "State": "KARNATAKA",
            "Pincode": "",
            "Contact": "080-41791000",
            "TPA": [
                "7"
            ],
            "Latitude": 13.0514002,
            "Longitude": 77.5948722,
            "no": 32360
        },
        {
            "HospitalName": "Chennai Meenakshi Multispeciality Hospital Ltd.",
            "Address": "# 148,LUZ CHURCH ROAD,MALAPORE",
            "City": "CHENNAI",
            "State": "Tamil Nadu",
            "Pincode": "",
            "Contact": "044-24992607",
            "TPA": [
                "7"
            ],
            "Latitude": 13.0375973,
            "Longitude": 80.2618854,
            "no": 32361
        },
        {
            "HospitalName": "H.C.G. CURIE CENTRE OF ONCOLOGY",
            "Address": "NO-88 17TH A MAIN 2ND CROSS 5TH BLOCK,KORMANGALA, NEAR SUKH SAGAR HOTEL",
            "City": "BENGALURU",
            "State": "KARNATAKA",
            "Pincode": "",
            "Contact": "080-25538194",
            "TPA": [
                "7"
            ],
            "Latitude": 12.9363877,
            "Longitude": 77.6247242,
            "no": 32362
        },
        {
            "HospitalName": "Deepam Hospital",
            "Address": "#327MUTHURANGAM ROADTAMBARAM(WEST),KANCHIPURAM WEST TAMBARAM",
            "City": "CHENNAI",
            "State": "Tamil Nadu",
            "Pincode": "",
            "Contact": "044-43970221",
            "TPA": [
                "7"
            ],
            "Latitude": 12.9293855,
            "Longitude": 80.1175343,
            "no": 32363
        },
        {
            "HospitalName": "S.V. Nursing Home",
            "Address": "1-G,49-BP,NIT",
            "City": "FARIDABAD",
            "State": "HARYANA",
            "Pincode": "",
            "Contact": "0129-2416240",
            "TPA": [
                "7"
            ],
            "Latitude": 28.3898576,
            "Longitude": 77.304441,
            "no": 32364
        },
        {
            "HospitalName": "C.S.I. Kalyani General Hospital",
            "Address": "15 DR RADHAKRISHNAN SALAI MYLAPORE NEXT,TO CITY CENTRE",
            "City": "CHENNAI",
            "State": "Tamil Nadu",
            "Pincode": "",
            "Contact": "044-28475101",
            "TPA": [
                "7"
            ],
            "Latitude": 13.0433676,
            "Longitude": 80.2720114,
            "no": 32365
        },
        {
            "HospitalName": "Gleneagles Global Hospitals",
            "Address": "6-1-1070/1 TO4 LAKDI KA PUL RANGA,REDDYBESIDE R R DIST. COLLECTOR OFF",
            "City": "HYDERABAD",
            "State": "TELANGANA",
            "Pincode": "",
            "Contact": "040-23244444",
            "TPA": [
                "7"
            ],
            "Latitude": 17.4043766,
            "Longitude": 78.4646447,
            "no": 32366
        },
        {
            "HospitalName": "Perfect Wellness Private Limited",
            "Address": "#7, SEC:27-A, MAIN MATHURAROAD",
            "City": "FARIDABAD",
            "State": "HARYANA",
            "Pincode": "",
            "Contact": "0129-4108880",
            "TPA": [
                "7"
            ],
            "Latitude": 28.430297,
            "Longitude": 77.30876099999999,
            "no": 32367
        },
        {
            "HospitalName": "Billroth Hospitals - Ra Puram",
            "Address": "#52, 2ND MAIN ROAD, RAJA ANNAMALAI PURAM",
            "City": "CHENNAI",
            "State": "Tamil Nadu",
            "Pincode": "",
            "Contact": "900000",
            "TPA": [
                "7"
            ],
            "Latitude": 13.0274281,
            "Longitude": 80.256635,
            "no": 32368
        },
        {
            "HospitalName": "Challa Eye Care Centre",
            "Address": "8-2-268/R/9-P, SAGAR SOCIETY MAIN ROAD, #2 BANJARA HILLS",
            "City": "HYDERABAD",
            "State": "TELANGANA",
            "Pincode": "",
            "Contact": "09849204178",
            "TPA": [
                "7"
            ],
            "Latitude": 17.4282139,
            "Longitude": 78.4325459,
            "no": 32369
        },
        {
            "HospitalName": "C.K. Hospital",
            "Address": "# 41,BALASUBBARAYALU STREET",
            "City": "COIMBATORE",
            "State": "Tamil Nadu",
            "Pincode": "",
            "Contact": "0424-2262728",
            "TPA": [
                "7"
            ],
            "Latitude": 10.9973691,
            "Longitude": 76.9588876,
            "no": 32370
        },
        {
            "HospitalName": "Dr. Saurabh Shah Ortho Hospital",
            "Address": "3/B HASMUKH COLONY NEAR VIJAYNAGAR,PETROL PUMP VIJAYNAGAR ROAD N.PURA",
            "City": "AHMEDABAD",
            "State": "Gujarat",
            "Pincode": "",
            "Contact": "079-27437225",
            "TPA": [
                "7"
            ],
            "Latitude": 23.057133,
            "Longitude": 72.55995349999999,
            "no": 32371
        },
        {
            "HospitalName": "Brs Hospital Pvt.Ltd",
            "Address": "NO.28. CATHEDRAL GARDEN ROADCATHEDRAL,GARDENSROAD",
            "City": "CHENNAI",
            "State": "Tamil Nadu",
            "Pincode": "",
            "Contact": "044-28259222",
            "TPA": [
                "7"
            ],
            "Latitude": 13.0519656,
            "Longitude": 80.2454434,
            "no": 32372
        },
        {
            "HospitalName": "M.K. Datta Hospital",
            "Address": "CROSS ROAD,NO.1,CANTT",
            "City": "AMBALA",
            "State": "HARYANA",
            "Pincode": "",
            "Contact": "0171-2642745",
            "TPA": [
                "7"
            ],
            "Latitude": 30.3401807,
            "Longitude": 76.8460715,
            "no": 32373
        },
        {
            "HospitalName": "Dev Hospital Dev Seva Trust",
            "Address": "KESARIYAJI BUS STOPVASNA JIVRAJ MEHTA,HOSP. ROADVASNA",
            "City": "AHMEDABAD",
            "State": "Gujarat",
            "Pincode": "",
            "Contact": "079-26614646",
            "TPA": [
                "7"
            ],
            "Latitude": 23.00606,
            "Longitude": 72.5449639,
            "no": 32374
        },
        {
            "HospitalName": "Poulomi Hospital",
            "Address": "A2 & B17, RUKMINIPURI COLONY",
            "City": "SECUNDERABAD",
            "State": "TELANGANA",
            "Pincode": "",
            "Contact": "9000778035",
            "TPA": [
                "7"
            ],
            "Latitude": 17.4824323,
            "Longitude": 78.5528198,
            "no": 32375
        },
        {
            "HospitalName": "Nu Hospitals Pvt Ltd",
            "Address": "C.A. 6 15TH MAIN 11TH CROSS PADMANABHA,NAGAR NEAR DEVGOWDA PETROL BUNK",
            "City": "BENGALURU",
            "State": "KARNATAKA",
            "Pincode": "",
            "Contact": "080-42489999",
            "TPA": [
                "7"
            ],
            "Latitude": 12.9035289,
            "Longitude": 77.591832,
            "no": 32376
        },
        {
            "HospitalName": "Care Hospitals (A Unit Of Quality Care India Limited).",
            "Address": "EXHIBITION ROAD, NEAR MAZAM JAHI MARKET, NAMPALLY",
            "City": "HYDERABAD",
            "State": "TELANGANA",
            "Pincode": "",
            "Contact": "040-30417777",
            "TPA": [
                "7"
            ],
            "Latitude": 17.3864061,
            "Longitude": 78.4715763,
            "no": 32377
        },
        {
            "HospitalName": "Care Hospitals",
            "Address": "NEAR CLOCL TOWERADJACENT LANETO WESTELY,CHURCHMARKET STRE",
            "City": "SECUNDERABAD",
            "State": "TELANGANA",
            "Pincode": "",
            "Contact": "040-7706252",
            "TPA": [
                "7"
            ],
            "Latitude": 17.4399295,
            "Longitude": 78.4982741,
            "no": 32378
        },
        {
            "HospitalName": "Care Hospital",
            "Address": "NO.6-3-248/1/1A,ROAD NO.01,BANJARA HILLS",
            "City": "HYDERABAD",
            "State": "TELANGANA",
            "Pincode": "",
            "Contact": "8978621515",
            "TPA": [
                "7"
            ],
            "Latitude": 17.4220585,
            "Longitude": 78.49000079999999,
            "no": 32379
        },
        {
            "HospitalName": "B M Hospitals",
            "Address": "36 5TH MAIN ROAD THILLAI GANGA,NAGARCHEENAI",
            "City": "CHENNAI",
            "State": "Tamil Nadu",
            "Pincode": "",
            "Contact": "044-22341182",
            "TPA": [
                "7"
            ],
            "Latitude": 12.9888177,
            "Longitude": 80.19016289999999,
            "no": 32380
        },
        {
            "HospitalName": "Bibi General Hospital & Cancer Centre",
            "Address": "16-3-991/1/C GOVT PRINTING PRESS,MARKETGOVT. PRINTING PRESS ROAD",
            "City": "HYDERABAD",
            "State": "TELANGANA",
            "Pincode": "",
            "Contact": "040-24528122",
            "TPA": [
                "7"
            ],
            "Latitude": 17.406498,
            "Longitude": 78.47724389999999,
            "no": 32381
        },
        {
            "HospitalName": "Athipathi Hospital And Research Center",
            "Address": "PLOT NO 1 100 FT RD TANNI NAGAR,VELACHARY",
            "City": "CHENNAI",
            "State": "Tamil Nadu",
            "Pincode": "",
            "Contact": "044-22432464",
            "TPA": [
                "7"
            ],
            "Latitude": 12.9890142,
            "Longitude": 80.2186054,
            "no": 32382
        },
        {
            "HospitalName": "Gupta Nursing Home",
            "Address": "160,SECTOR 16-A",
            "City": "FARIDABAD",
            "State": "HARYANA",
            "Pincode": "",
            "Contact": "01294076211",
            "TPA": [
                "7"
            ],
            "Latitude": 28.4158736,
            "Longitude": 77.312623,
            "no": 32383
        },
        {
            "HospitalName": "Bapuji Maternity & Nursing Home",
            "Address": "16254,BAPUJI NAGARNACHARAM",
            "City": "HYDERABAD",
            "State": "TELANGANA",
            "Pincode": "",
            "Contact": "040-27175567",
            "TPA": [
                "7"
            ],
            "Latitude": 17.385044,
            "Longitude": 78.486671,
            "no": 32384
        },
        {
            "HospitalName": "Bopal Multispeciality Hospital Pvt Ltd",
            "Address": "1ST FIRST FLOOR ABHINANDAN COMPLEX,OPP-INDUCTOTHERM BOPAL",
            "City": "AHMEDABAD",
            "State": "Gujarat",
            "Pincode": "",
            "Contact": "02717-233043",
            "TPA": [
                "7"
            ],
            "Latitude": 23.0315752,
            "Longitude": 72.4715119,
            "no": 32385
        },
        {
            "HospitalName": "Aneri Surgical & Neurosurgical Hospital",
            "Address": "1ST FLOOR,SWAMI NARAYAN COMPLEX",
            "City": "AHMEDABAD",
            "State": "Gujarat",
            "Pincode": "",
            "Contact": "079-26606591",
            "TPA": [
                "7"
            ],
            "Latitude": 23.0234523,
            "Longitude": 72.5557963,
            "no": 32386
        },
        {
            "HospitalName": "Poojitha Hospital",
            "Address": "#7-2-1799/4A/2 CZECH COLONY SANATH,NAGAR RANGA REDDY",
            "City": "HYDERABAD",
            "State": "TELANGANA",
            "Pincode": "",
            "Contact": "040-23711366",
            "TPA": [
                "7"
            ],
            "Latitude": 17.456276,
            "Longitude": 78.437005,
            "no": 32387
        },
        {
            "HospitalName": "Appasamy Medicare Centre Pvt Ltd",
            "Address": "23-25 FRIENDS AVENUE ARUMBAKKAM,ARUMBAKKAM",
            "City": "CHENNAI",
            "State": "Tamil Nadu",
            "Pincode": "",
            "Contact": "044-30595956",
            "TPA": [
                "7"
            ],
            "Latitude": 13.0733385,
            "Longitude": 80.2147624,
            "no": 32388
        },
        {
            "HospitalName": "Mansarovar Hospital & Polyclinic",
            "Address": "KHETESHWAR MEDICALEDUCARIONA RESEARCH,CENTREKIRTI COLONY",
            "City": "AHMEDABAD",
            "State": "Gujarat",
            "Pincode": "",
            "Contact": "079-27557022",
            "TPA": [
                "7"
            ],
            "Latitude": 23.0471546,
            "Longitude": 72.5654249,
            "no": 32389
        },
        {
            "HospitalName": "Apollo Hospital ( T.H.Road-Chennai)",
            "Address": "#645,T.H.ROAD,TONDIARPET",
            "City": "CHENNAI",
            "State": "Tamil Nadu",
            "Pincode": "",
            "Contact": "044-25911132",
            "TPA": [
                "7"
            ],
            "Latitude": 13.1289928,
            "Longitude": 80.29050889999999,
            "no": 32390
        },
        {
            "HospitalName": "Anand Surgical Hospital Ltd.",
            "Address": "5 JANTA CHAMBERS NR SAIJPUR TOWERNR.,SAIJPUR TOWER",
            "City": "AHMEDABAD",
            "State": "Gujarat",
            "Pincode": "",
            "Contact": "079-2815100",
            "TPA": [
                "7"
            ],
            "Latitude": 23.0547418,
            "Longitude": 72.63107459999999,
            "no": 32391
        },
        {
            "HospitalName": "Apollo Emergency Hospital",
            "Address": "3-5-836 HYDERGUDA,ADRESSSS 1",
            "City": "HYDERABAD",
            "State": "TELANGANA",
            "Pincode": "",
            "Contact": "8978548194",
            "TPA": [
                "7"
            ],
            "Latitude": 17.3635663,
            "Longitude": 78.4226674,
            "no": 32392
        },
        {
            "HospitalName": "Anand Hospital",
            "Address": "#201, KAMARAJ SALAI,,MANALI MANALI",
            "City": "CHENNAI",
            "State": "Tamil Nadu",
            "Pincode": "",
            "Contact": "044-25942702",
            "TPA": [
                "7"
            ],
            "Latitude": 13.1627902,
            "Longitude": 80.2610452,
            "no": 32393
        },
        {
            "HospitalName": "Ammayi Eye Hospital",
            "Address": "NEW # 80 7TH AVENUE, ASHOK NAGAR",
            "City": "CHENNAI",
            "State": "Tamil Nadu",
            "Pincode": "",
            "Contact": "044-24896175",
            "TPA": [
                "7"
            ],
            "Latitude": 13.0332491,
            "Longitude": 80.2158236,
            "no": 32394
        },
        {
            "HospitalName": "Amma Hospital",
            "Address": "# 1,SOWRASTRA NAGAR7TH STREET",
            "City": "CHENNAI",
            "State": "Tamil Nadu",
            "Pincode": "",
            "Contact": "044-24840441",
            "TPA": [
                "7"
            ],
            "Latitude": 13.0627469,
            "Longitude": 80.2304735,
            "no": 32395
        },
        {
            "HospitalName": "Alva Hospital Pvt Ltd",
            "Address": "74/A2,MEENKARAI ROAD,COIMBATORE",
            "City": "POLLACHI",
            "State": "Tamil Nadu",
            "Pincode": "",
            "Contact": "04259-253303",
            "TPA": [
                "7"
            ],
            "Latitude": 10.6504396,
            "Longitude": 76.9855841,
            "no": 32396
        },
        {
            "HospitalName": "Aditya Hospital",
            "Address": "NO.7,BARNBAY ROAD,KILPAUK",
            "City": "CHENNAI",
            "State": "Tamil Nadu",
            "Pincode": "",
            "Contact": "044-26411450",
            "TPA": [
                "7"
            ],
            "Latitude": 13.0806648,
            "Longitude": 80.2486134,
            "no": 32397
        },
        {
            "HospitalName": "Abinand Hospital",
            "Address": "237-F/7, POLLACHI MAIN ROAD, SUNDARAPURAM",
            "City": "COIMBATORE",
            "State": "Tamil Nadu",
            "Pincode": "",
            "Contact": "0422 - 2673810",
            "TPA": [
                "7"
            ],
            "Latitude": 10.9544799,
            "Longitude": 76.973423,
            "no": 32398
        },
        {
            "HospitalName": "Abhijay Hospital (P) Ltd.",
            "Address": "NO.22/2,E.S.I HOSPITAL ROAD,PERAVALLUR",
            "City": "PERAMBUR NORTH",
            "State": "Tamil Nadu",
            "Pincode": "",
            "Contact": "044-25585322",
            "TPA": [
                "7"
            ],
            "Latitude": 13.1176241,
            "Longitude": 80.2333515,
            "no": 32399
        },
        {
            "HospitalName": "ABHAYA HOSPITAL (NEURO PSYCHIATRY & CRITICAL CARE HOSPITAL PVT LTD)",
            "Address": "17,DR.M.H.MARI GOWDA ROAD,WILSON GARDEN",
            "City": "BENGALURU",
            "State": "KARNATAKA",
            "Pincode": "",
            "Contact": "080-26563865",
            "TPA": [
                "7"
            ],
            "Latitude": 12.944934,
            "Longitude": 77.5969346,
            "no": 32400
        },
        {
            "HospitalName": "Aditya Hospital",
            "Address": "#4-1-16, BOGGULAKUNTA, TILAK ROAD, ABIDS",
            "City": "HYDERABAD",
            "State": "TELANGANA",
            "Pincode": "",
            "Contact": "040-41424344",
            "TPA": [
                "7"
            ],
            "Latitude": 17.3902372,
            "Longitude": 78.48122219999999,
            "no": 32401
        },
        {
            "HospitalName": "Nayyar Hospital",
            "Address": "3-DASONDHA SIGH ROAD",
            "City": "AMRITSAR",
            "State": "PUNJAB",
            "Pincode": "",
            "Contact": "0183-2220041",
            "TPA": [
                "7"
            ],
            "Latitude": 31.6512872,
            "Longitude": 74.8790475,
            "no": 32402
        },
        {
            "HospitalName": "HEALING TOUCH EYE HOSPITAL",
            "Address": "SHOP NO 5,6, SATYAM HEIGHTS, PLOT NO 81, SECTOR 19, KAMOTH, NAVI MUMBAI",
            "City": "MUMBAI",
            "State": "Maharashtra",
            "Pincode": "",
            "Contact": "9320496332",
            "TPA": [
                "7"
            ],
            "Latitude": 19.0149028,
            "Longitude": 73.0934541,
            "no": 32403
        },
        {
            "HospitalName": "THE SIGNATURE HOSPITAL",
            "Address": "SECTOR 37-D,BPTP, DWARKA EXPREXXWAY, GURGAON, HARAYANA",
            "City": "Gurugram",
            "State": "HARYANA",
            "Pincode": "",
            "Contact": "9915500684",
            "TPA": [
                "7"
            ],
            "Latitude": 28.4541997,
            "Longitude": 76.97321819999999,
            "no": 32404
        },
        {
            "HospitalName": "SAARTHI HOSPITAL",
            "Address": "VAKRATUNDA PALACE, TANK ROAD, BHANDUP, MUMBAI",
            "City": "MUMBAI",
            "State": "Maharashtra",
            "Pincode": "",
            "Contact": "8655057885",
            "TPA": [
                "7"
            ],
            "Latitude": 19.146781,
            "Longitude": 72.9347212,
            "no": 32405
        },
        {
            "HospitalName": "FORTIS HOSPITAL RAJAJINAGAR",
            "Address": "111, WEST O CHORD ROAD, OPP RAJAJINAGAR, 1ST BLOCK JUNCTION, BANGALORE",
            "City": "BENGALURU",
            "State": "KARNATAKA",
            "Pincode": "",
            "Contact": "9900258813",
            "TPA": [
                "7"
            ],
            "Latitude": 13.0021399,
            "Longitude": 77.54910579999999,
            "no": 32406
        },
        {
            "HospitalName": "THE HEALING TOUCH EYE CARE",
            "Address": "C-2/390, JANAKPURI, NEW DELHI",
            "City": "DELHI",
            "State": "DELHI",
            "Pincode": "",
            "Contact": "9871789999",
            "TPA": [
                "7"
            ],
            "Latitude": 28.6155594,
            "Longitude": 77.0828646,
            "no": 32407
        },
        {
            "HospitalName": "Kauvery HCG Cancer Centre",
            "Address": "# 199/90, MBC Towers, Luz Church Road",
            "City": "CHENNAI",
            "State": "Tamil Nadu",
            "Pincode": "",
            "Contact": "8144938757",
            "TPA": [
                "7"
            ],
            "Latitude": 13.03834,
            "Longitude": 80.25710409999999,
            "no": 32408
        },
        {
            "HospitalName": "Aveksha Hospital (A Unit Of Aarogya Health Care Services)",
            "Address": "#122, Varadarajaswamy Layout, Singapura Main Road",
            "City": "BENGALURU",
            "State": "KARNATAKA",
            "Pincode": "",
            "Contact": "08067590000",
            "TPA": [
                "7"
            ],
            "Latitude": 13.0780695,
            "Longitude": 77.5411708,
            "no": 32409
        },
        {
            "HospitalName": "A M medical Centre",
            "Address": "97A,SOUTHERN AVENUE,OPP TO LAKE STADIUM",
            "City": "KOLKATA",
            "State": "WEST BENGAL",
            "Pincode": "",
            "Contact": "9831741088",
            "TPA": [
                "7"
            ],
            "Latitude": 22.5133384,
            "Longitude": 88.3526807,
            "no": 32410
        },
        {
            "HospitalName": "HEALING HOSPITAL AND INSTITUTE OF PARAMEDICAL SCIENCES",
            "Address": "SCO 18-19, Dakshin Marg, Sector-34A",
            "City": "CHANDIGARH",
            "State": "CHANDIGARH",
            "Pincode": "",
            "Contact": "9478833511",
            "TPA": [
                "7"
            ],
            "Latitude": 30.725224,
            "Longitude": 76.809215,
            "no": 32411
        },
        {
            "HospitalName": "VIDARBHA INSTITUTE OF MEDICAL SCIENCES",
            "Address": "Kamptee Rd, LIC Square, Mohan Nagar",
            "City": "MOHAN NAGAR (NAGPUR)",
            "State": "Maharashtra",
            "Pincode": "",
            "Contact": "8421406591",
            "TPA": [
                "7"
            ],
            "Latitude": 21.155396,
            "Longitude": 79.082545,
            "no": 32412
        },
        {
            "HospitalName": "Clear Vision Eye Hospital, Maninagar",
            "Address": "Opp L G Hospital  maninagar  Ahmedabad; Dist: Ahmedabad; State: Gujarat",
            "City": "AHMEDABAD",
            "State": "Gujarat",
            "Pincode": "",
            "Contact": "9377092923",
            "TPA": [
                "7"
            ],
            "Latitude": 23.0019868,
            "Longitude": 72.59913759999999,
            "no": 32413
        },
        {
            "HospitalName": "Clear Vision Eye Hospital-GHODASAR",
            "Address": "404 Radhe Kishan Arcade,Near Vaibhav Hall,Above Comfy Restaurant,Ghodasar cross roads",
            "City": "AHMEDABAD",
            "State": "Gujarat",
            "Pincode": "",
            "Contact": "8347499173",
            "TPA": [
                "7"
            ],
            "Latitude": 22.9786459,
            "Longitude": 72.60863979999999,
            "no": 32414
        },
        {
            "HospitalName": "Regen Hospital",
            "Address": "Sanga Setu Road , Airport Sanganer , Sanganer , Rajasthan",
            "City": "JAIPUR",
            "State": "RAJASTHAN",
            "Pincode": "",
            "Contact": "9610032456",
            "TPA": [
                "7"
            ],
            "Latitude": 26.8185319,
            "Longitude": 75.7954951,
            "no": 32415
        },
        {
            "HospitalName": "RUBY HALL CLINIC",
            "Address": "40, Sasoon Rd, Sangamvadi, Pune, Maharashtra 411001",
            "City": "PUNE",
            "State": "Maharashtra",
            "Pincode": "",
            "Contact": "9326773573",
            "TPA": [
                "7"
            ],
            "Latitude": 18.5335842,
            "Longitude": 73.87715659999999,
            "no": 32416
        },
        {
            "HospitalName": "AMRI HOSPITALS  SALT LAKE ( A UNIT OF AMRI HOSPITALS )",
            "Address": "JC- 16&17, SALT LAKE CITY, Kolkata \u2013 700098",
            "City": "KOLKATA",
            "State": "WEST BENGAL",
            "Pincode": "",
            "Contact": "9831741088",
            "TPA": [
                "7"
            ],
            "Latitude": 22.568423,
            "Longitude": 88.41163689999999,
            "no": 32417
        },
        {
            "HospitalName": "GRANT MEDICAL FUNDATION RUBY HALL CLINIC",
            "Address": "59/6,AZAD NAGAR ,WANOWARIE PUNE",
            "City": "PUNE",
            "State": "Maharashtra",
            "Pincode": "",
            "Contact": "8108181009",
            "TPA": [
                "7"
            ],
            "Latitude": 18.4859123,
            "Longitude": 73.9058683,
            "no": 32418
        },
        {
            "HospitalName": "Calcutta Medical Research Institute (Cmri)",
            "Address": "#7/2, Diamond Harbour Road",
            "City": "KOLKATA",
            "State": "WEST BENGAL",
            "Pincode": "",
            "Contact": "9831797266",
            "TPA": [
                "7"
            ],
            "Latitude": 22.5321698,
            "Longitude": 88.3278024,
            "no": 32419
        },
        {
            "HospitalName": "Mayom Hospital (A Unit of USMC Trust)",
            "Address": "D-Block, South City -1",
            "City": "Gurugram",
            "State": "HARYANA",
            "Pincode": "",
            "Contact": "9899247437",
            "TPA": [
                "7"
            ],
            "Latitude": 28.4580549,
            "Longitude": 77.0635559,
            "no": 32420
        },
        {
            "HospitalName": "NAGAR HOSPITAL",
            "Address": "B-1,LOHIA NAGAR, GHAZIABAD",
            "City": "GHAZIABAD",
            "State": "UTTAR PRADESH",
            "Pincode": "",
            "Contact": "9810108979",
            "TPA": [
                "7"
            ],
            "Latitude": 28.672885,
            "Longitude": 77.4360203,
            "no": 32421
        },
        {
            "HospitalName": "Gurukrupa hospital",
            "Address": "Poonam Arcade, 1st Floor, Sheetal Naka, Near SK Stone Police Chowky, Mira Road East",
            "City": "MUMBAI",
            "State": "Maharashtra",
            "Pincode": "",
            "Contact": "9970830563",
            "TPA": [
                "7"
            ],
            "Latitude": 19.2841778,
            "Longitude": 72.8657767,
            "no": 32422
        },
        {
            "HospitalName": "SHALBY HOSPITAL",
            "Address": "Opp. Karnavati Club ,S. G. Road , Ahmedabad , Gujarat , INDIA.",
            "City": "AHMEDABAD",
            "State": "Gujarat",
            "Pincode": "",
            "Contact": "9737733343",
            "TPA": [
                "7"
            ],
            "Latitude": 23.0190291,
            "Longitude": 72.5066568,
            "no": 32423
        },
        {
            "HospitalName": "MAHAVIR JAIPURIYA RAJASTHAN HOSPITAL",
            "Address": "Opp. Jaipuriya Hospital,Milap Nagar,JLN Marg, Jaipur-302018",
            "City": "JAIPUR",
            "State": "RAJASTHAN",
            "Pincode": "",
            "Contact": "9982686744",
            "TPA": [
                "7"
            ],
            "Latitude": 26.8554938,
            "Longitude": 75.8020044,
            "no": 32424
        },
        {
            "HospitalName": "SEVEN STAR MULTISPECIALITY HOSPITAL AND RESEARCH CENTRE",
            "Address": "SURBHI HOUSE DIMPLE ARCADE, BEHIND SAI DHAM THAKUR COMPLEX,KANDIVALI EAST, MUMBAI-4000101",
            "City": "MUMBAI",
            "State": "Maharashtra",
            "Pincode": "",
            "Contact": "8422988057",
            "TPA": [
                "7"
            ],
            "Latitude": 19.211969,
            "Longitude": 72.8669862,
            "no": 32425
        },
        {
            "HospitalName": "AMRUT HOSPITAL",
            "Address": "DR. RAJENDRA PRASAD ROAD,TILAK NAGAR,DOMBIVALI EAST,KALYAN,THANE-MAHARASTHA-",
            "City": "DOMBIVLI",
            "State": "Maharashtra",
            "Pincode": "",
            "Contact": "9820154228",
            "TPA": [
                "7"
            ],
            "Latitude": 19.2147383,
            "Longitude": 73.0922016,
            "no": 32426
        },
        {
            "HospitalName": "Chopra Eye Hospital",
            "Address": "House No.3, C-8, Sector-7, Rohini",
            "City": "DELHI",
            "State": "DELHI",
            "Pincode": "",
            "Contact": "9811033053",
            "TPA": [
                "7"
            ],
            "Latitude": 28.7079889,
            "Longitude": 77.12407739999999,
            "no": 32427
        },
        {
            "HospitalName": "PARAS HEALTHCARE PRIVATE LIMITED",
            "Address": "Plot no. H-2, HSIIDC, Technology Park, Sector 22, Panchkula, Haryana \u2013 134109",
            "City": "FARIDABAD",
            "State": "HARYANA",
            "Pincode": "",
            "Contact": "7307731113",
            "TPA": [
                "7"
            ],
            "Latitude": 30.6925244,
            "Longitude": 76.8785819,
            "no": 32428
        },